__type;Title;Name;Description;Adress;latitude;longitude
VEMaps.PinData;BIBLIOTHEQUE MUNICIPALE DU LOUVRE;;;4  PLACE DU LOUVRE 75001 PARIS;48.860138;2.3411188
VEMaps.PinData;BIBLIOTHEQUE MUNICIPALE LA FONTAINE;;;91  RUE RAMBUTEAU 75001 PARIS;48.8624336;2.3478295
VEMaps.PinData;ECOLE MATERNELLE 27 RUE LA SOURDIERE;;;27  RUE DE LA SOURDIERE 75001 PARIS;48.8667748;2.3328349
VEMaps.PinData;ECOLE MATERNELLE 6 RUE SAINT-GERMAIN L'AUXERROIS;;;6  RUE SAINT-GERMAIN L'AUXERROIS 75001 PARIS;48.8582208;2.3450923
VEMaps.PinData;ECOLE ÉLÉMENTAIRE 11 RUE ARGENTEUIL;;;11  RUE D' ARGENTEUIL 75001 PARIS;48.864939;2.3338453
VEMaps.PinData;ECOLE ÉLÉMENTAIRE 15 RUE ARBRE SEC;;;15  RUE DE L' ARBRE SEC 75001 PARIS;48.8597031;2.3419602
VEMaps.PinData;ECOLE POLYVALENTE 28 RUE CAMBON;;;28  RUE CAMBON 75001 PARIS;48.8681342;2.3268589
VEMaps.PinData;MAIRIE DU 1ER ARRONDISSEMENT;;;4  PLACE DU LOUVRE 75001 PARIS;48.860138;2.3411188
VEMaps.PinData;MAISON PROVISOIRE DES ASSOCIATIONS;;;101  RUE RAMBUTEAU 75001 PARIS;48.8626844;2.3468031
VEMaps.PinData;GYMNASE SUZANNE BERLIOUX;;;4  PLACE DE LA ROTONDE 75001 PARIS;48.8715324;2.3316016
VEMaps.PinData;BIBLIOTHEQUE MUNICIPALE CHARLOTTE BELBO;;;2  PASSAGE DES PETITS PERES 75002 PARIS;48.8664578;2.3405837
VEMaps.PinData;ECOLE MATERNELLE 11 RUE VIVIENNE;;;11  RUE VIVIENNE 75002 PARIS;48.86735;2.3391885
VEMaps.PinData;ECOLE MATERNELLE 12 RUE DUSSOUBS;;;12  RUE DUSSOUBS 75002 PARIS;48.8651293;2.3486038
VEMaps.PinData;ECOLE MATERNELLE 221 RUE SAINT-DENIS;;;221  RUE SAINT-DENIS 75002 PARIS;48.8676223;2.3516106
VEMaps.PinData;ECOLE ÉLÉMENTAIRE 3 RUE JUSSIENNE;;;3  RUE DE LA JUSSIENNE 75002 PARIS;48.864875;2.345026
VEMaps.PinData;ECOLE ÉLÉMENTAIRE 42 RUE DUSSOUBS;;;42  RUE DUSSOUBS 75002 PARIS;48.8672653;2.3497344
VEMaps.PinData;ECOLE ÉLÉMENTAIRE 6 RUE DE LOUVOIS;;;6  RUE DE LOUVOIS 75002 PARIS;48.867878;2.338017
VEMaps.PinData;ECOLE POLYVALENTE 20 RUE ETIENNE MARCEL;;;20  RUE ETIENNE MARCEL 75002 PARIS;48.8641239;2.3483981
VEMaps.PinData;ECOLE POLYVALENTE 5 RUE BEAUREGARD;;;5  RUE BEAUREGARD 75002 PARIS;48.8692652;2.3483438
VEMaps.PinData;MAIRIE DU 2E ARRONDISSEMENT;;;8  RUE DE LA BANQUE 75002 PARIS;48.866806;2.3403472
VEMaps.PinData;MAISON DES ASSOCIATIONS RUE GRENETA;;;23  RUE GRENETA 75002 PARIS;48.8650784;2.3506374
VEMaps.PinData;GYMNASE JEAN DAME;;;17  RUE LEOPOLD BELLAN 75002 PARIS;48.8665875;2.3452301
VEMaps.PinData;BIBLIOTHEQUE MARGUERITE AUDOUX;;;8  RUE PORTEFOIN 75003 PARIS;48.8635263;2.3601993
VEMaps.PinData;ECOLE MATERNELLE 25 RUE CHAPON;;;25  RUE CHAPON 75003 PARIS;48.8642519;2.3551473
VEMaps.PinData;ECOLE MATERNELLE 5 RUE BRANTOME;;;5  RUE BRANTOME 75003 PARIS;48.8618792;2.3527998
VEMaps.PinData;ECOLE MATERNELLE 52 RUE TURENNE;;;52  RUE DE TURENNE 75003 PARIS;48.8583946;2.364506
VEMaps.PinData;ECOLE MATERNELLE 6 RUE PAUL DUBOIS;;;6  RUE PAUL DUBOIS 75003 PARIS;48.8656045;2.3616199
VEMaps.PinData;ECOLE MATERNELLE 7 RUE PERLE;;;7  RUE DE LA PERLE 75003 PARIS;48.860169;2.360188
VEMaps.PinData;ECOLE ÉLÉMENTAIRE 3 RUE BERANGER;;;3  RUE BERANGER 75003 PARIS;48.8650843;2.3642931
VEMaps.PinData;ECOLE ÉLÉMENTAIRE 54 RUE TURENNE;;;54  RUE DE TURENNE 75003 PARIS;48.8586081;2.3647036
VEMaps.PinData;ECOLE ÉLÉMENTAIRE 6 RUE VAUCANSON;;;6  RUE VAUCANSON 75003 PARIS;48.8670651;2.3567355
VEMaps.PinData;ECOLE ÉLÉMENTAIRE 8 RUE VERTUS;;;8  RUE DES VERTUS 75003 PARIS;48.8636192;2.3574791
VEMaps.PinData;ECOLE ÉLÉMENTAIRE 10 B RUE QUATRE FILS;;;10B  RUE DES QUATRE FILS 75003 PARIS;48.8634799;2.3591145
VEMaps.PinData;ECOLE POLYVALENTE 211 RUE SAINT-MARTIN;;;211  RUE SAINT-MARTIN 75003 PARIS;48.863356;2.35256
VEMaps.PinData;MAIRIE DU 3E ARRONDISSEMENT;;;2  RUE EUGENE SPULLER 75003 PARIS;48.8637558;2.3613364
VEMaps.PinData;MAISON DES ASSOCIATIONS DU 3ÈME ARRONDISSEMENT MADELEINE REBERIOUX;;;5  RUE PERREE 75003 PARIS;48.8640521;2.3623013
VEMaps.PinData;SALLES ASSOCIATIVES SILVA MONFORT;;;2b  RUE ELZEVIR 75003 PARIS;48.8577078;2.3607303
VEMaps.PinData;GYMNASE DU CARREAU DU TEMPLE;;;2  RUE PERREE 75003 PARIS;48.8638829;2.3627554
VEMaps.PinData;GYMNASE MICHEL LE COMTE;;;14  RUE MICHEL LE COMTE 75003 PARIS;48.8621959;2.3562871
VEMaps.PinData;LOCAL DU CONSEIL DE LA JEUNESSE RUE CAFFARELLI;;;10  RUE CAFFARELLI 75003 PARIS;48.8636596;2.3619174
VEMaps.PinData;BIBLIOTHEQUE MUNICIPALE BAUDOYER;;;2  PLACE BAUDOYER 75004 PARIS;48.8559279;2.3553172
VEMaps.PinData;BIBLIOTHEQUE MUNICIPALE ISLE SAINT-LOUIS;;;21  RUE SAINT-LOUIS EN L'ILE 75004 PARIS;48.8515183;2.3573375
VEMaps.PinData;ECOLE MATERNELLE 12 PL VOSGES;;;12  PLACE DES VOSGES 75004 PARIS;48.8551664;2.3663657
VEMaps.PinData;ECOLE MATERNELLE 18 RUE POULLETIER;;;18  RUE POULLETIER 75004 PARIS;48.8516315;2.3585374
VEMaps.PinData;ECOLE MATERNELLE 4 RUE FAUCONNIER;;;4  RUE DU FAUCONNIER 75004 PARIS;48.8537107;2.3596707
VEMaps.PinData;ECOLE MATERNELLE 40 RUE ARCHIVES;;;40  RUE DES ARCHIVES 75004 PARIS;48.8590855;2.3558647
VEMaps.PinData;ECOLE ÉLÉMENTAIRE 9 RUE MOUSSY;;;9  RUE DE MOUSSY 75004 PARIS;48.858459;2.355342
VEMaps.PinData;ANNEXE ECOLE ÉLÉMENTAIRE DU 21 RUE SAINT LOUIS EN L'ILE;;;20  RUE POULLETIER 75004 PARIS;48.8519029;2.3586215
VEMaps.PinData;ECOLE ÉLÉMENTAIRE 15 RUE NEUVE SAINT-PIERRE;;;15  RUE NEUVE SAINT-PIERRE 75004 PARIS;48.8538891;2.3631323
VEMaps.PinData;ECOLE ÉLÉMENTAIRE 16 RUE RENARD;;;16  RUE DU RENARD 75004 PARIS;48.8591489;2.3534007
VEMaps.PinData;ECOLE ÉLÉMENTAIRE 21 RUE DES TOURNELLES;;;21B  RUE DES TOURNELLES 75004 PARIS;48.8546661;2.3673315
VEMaps.PinData;ECOLE ÉLÉMENTAIRE 21 RUE SAINT-LOUIS EN L'ILE;;;21  RUE SAINT-LOUIS EN L'ILE 75004 PARIS;48.8515183;2.3573375
VEMaps.PinData;ECOLE ÉLÉMENTAIRE 22 RUE AVE MARIA;;;22  RUE DE L' AVE MARIA 75004 PARIS;48.8526475;2.3605469
VEMaps.PinData;ECOLE POLYVALENTE 10 RUE HOSPITALIERES SAINT-GERVAIS;;;10  RUE DES HOSPITALIERES SAINT-GERVAIS 75004 PARIS;48.8580814;2.3590459
VEMaps.PinData;ECOLE POLYVALENTE 11 RUE SAINT-MERRI;;;11  RUE SAINT-MERRI 75004 PARIS;48.8593385;2.3529557
VEMaps.PinData;MAIRIE DU 4E ARRONDISSEMENT;;;2  PLACE BAUDOYER 75004 PARIS;48.8559279;2.3553172
VEMaps.PinData;ANNEXE MAIRIE D'ARRONDISSEMENT DU 4E BARRES;;;17  RUE DES BARRES 75004 PARIS;48.8556373;2.3555237
VEMaps.PinData;MAISON DES ASSOCIATIONS 30 BD HENRI IV;;;38  BOULEVARD HENRI IV 75004 PARIS;48.8521964;2.3659378
VEMaps.PinData;ESPACE D’ANIMATION DES BLANCS MANTEAUX;;;48  RUE VIEILLE DU TEMPLE 75004 PARIS;48.8582394;2.3583897
VEMaps.PinData;GYMNASE SAINT-MERRI;;;16  RUE DU RENARD 75004 PARIS;48.8591489;2.3534007
VEMaps.PinData;CENTRE D'ANIMATION SIMON LE FRANC;;;9  RUE SIMON LE FRANC 75004 PARIS;48.86008;2.3535342
VEMaps.PinData;LOCAL DU CONSEIL DE LA JEUNESSE RUE FRANCOIS MIRON;;;14  RUE FRANCOIS MIRON 75004 PARIS;48.8558984;2.3554569
VEMaps.PinData;BIBLIOTHEQUE MUNICIPALE L'HEURE JOYEUSE;;;6  RUE DES PRETRES SAINT-SEVERIN 75005 PARIS;48.8521289;2.3452233
VEMaps.PinData;BIBLIOTHEQUE RAINER MARIA RILKE;;;88T  BOULEVARD DE PORT-ROYAL 75005 PARIS;48.8392082;2.3391601
VEMaps.PinData;BIBLIOTHEQUE-DISCOTHEQUE MUNICIPALE BUFFON;;;15B  RUE BUFFON 75005 PARIS;48.8425674;2.3619117
VEMaps.PinData;BIBLIOTHEQUE-DISCOTHEQUE MUNICIPALE MOUFFETARD-CONTRESCARPE;;;74  RUE MOUFFETARD 75005 PARIS;48.8422977;2.3496693
VEMaps.PinData;CONSERVATOIRE MUNICIPAL GABRIEL FAURÉ;;;12  RUE DE PONTOISE 75005 PARIS;48.8500116;2.3519897
VEMaps.PinData;ECOLE MATERNELLE 10 RUE SOMMERARD;;;10  RUE DU SOMMERARD 75005 PARIS;48.8498332;2.3471668
VEMaps.PinData;ECOLE MATERNELLE 15 BIS RUE BUFFON;;;15B  RUE BUFFON 75005 PARIS;48.8425674;2.3619117
VEMaps.PinData;ECOLE MATERNELLE 22 RUE LYONNAIS;;;22  RUE DES LYONNAIS 75005 PARIS;48.8385062;2.3464906
VEMaps.PinData;ECOLE MATERNELLE 23 RUE CUJAS;;;23  RUE CUJAS 75005 PARIS;48.8480896;2.3419078
VEMaps.PinData;ECOLE MATERNELLE 242 RUE SAINT-JACQUES;;;242  RUE SAINT-JACQUES 75005 PARIS;48.8441489;2.3419384
VEMaps.PinData;ECOLE MATERNELLE 27 RUE POISSY;;;27  RUE DE POISSY 75005 PARIS;48.8486511;2.3523252
VEMaps.PinData;ECOLE MATERNELLE 29 RUE MOUFFETARD;;;29  RUE MOUFFETARD 75005 PARIS;48.8440089;2.3494211
VEMaps.PinData;ECOLE MATERNELLE 97 RUE MOUFFETARD;;;97  RUE MOUFFETARD 75005 PARIS;48.8414567;2.3496637
VEMaps.PinData;ECOLE ÉLÉMENTAIRE 41 RUE ARBALETE;;;41  RUE DE L' ARBALETE 75005 PARIS;48.8394534;2.3465127
VEMaps.PinData;ANNEXE ECOLE ÉLÉMENTAIRE DU 21 RUE BUFFON;;;11  RUE BUFFON 75005 PARIS;48.8428084;2.3623568
VEMaps.PinData;ECOLE ÉLÉMENTAIRE 10 RUE ROLLIN;;;10  RUE ROLLIN 75005 PARIS;48.8447842;2.3506583
VEMaps.PinData;ECOLE ÉLÉMENTAIRE 14 RUE VICTOR COUSIN;;;14  RUE VICTOR COUSIN 75005 PARIS;48.8475443;2.342163
VEMaps.PinData;ECOLE ÉLÉMENTAIRE 19 RUE BOULANGERS;;;19  RUE DES BOULANGERS 75005 PARIS;48.8458415;2.353043
VEMaps.PinData;ECOLE ÉLÉMENTAIRE 2 RUE PIERRE BROSSOLETTE;;;2  RUE PIERRE BROSSOLETTE 75005 PARIS;48.84252;2.346568
VEMaps.PinData;ECOLE ÉLÉMENTAIRE 21 RUE BUFFON;;;21  RUE BUFFON 75005 PARIS;48.8424743;2.3611549
VEMaps.PinData;ECOLE ÉLÉMENTAIRE 21 RUE PONTOISE;;;21  RUE DE PONTOISE 75005 PARIS;48.8487275;2.3512113
VEMaps.PinData;ECOLE ÉLÉMENTAIRE 24 RUE CARDINAL LEMOINE;;;24  RUE DU CARDINAL LEMOINE 75005 PARIS;48.848239;2.3532343
VEMaps.PinData;ECOLE ÉLÉMENTAIRE 250 B RUE SAINT-JACQUES;;;250B  RUE SAINT-JACQUES 75005 PARIS;48.8438094;2.3416932
VEMaps.PinData;ECOLE ÉLÉMENTAIRE 28 RUE SAINT-JACQUES;;;28  RUE SAINT-JACQUES 75005 PARIS;48.8513967;2.3458247
VEMaps.PinData;MAIRIE DU 5E ARRONDISSEMENT;;;21  PLACE DU PANTHEON 75005 PARIS;48.8465518;2.3444932
VEMaps.PinData;MAISON DES ASSOCIATIONS 4 RUE DES ARENES;;;4  RUE DES ARENES 75005 PARIS;48.845088;2.3542504
VEMaps.PinData;GYMNASE AMYOT;;;3  RUE AMYOT 75005 PARIS;48.8434222;2.3475568
VEMaps.PinData;GYMNASE BUFFON;;;13  RUE BUFFON 75005 PARIS;48.8426068;2.3620307
VEMaps.PinData;GYMNASE DES PATRIARCHES;;;6  PLACE BERNARD HALPERN 75005 PARIS;48.8404453;2.3507914
VEMaps.PinData;GYMNASE ORTOLAN;;;18  RUE ORTOLAN 75005 PARIS;48.8432305;2.3501878
VEMaps.PinData;GYMNASE POLIVEAU;;;39B  RUE POLIVEAU 75005 PARIS;48.839911;2.3576733
VEMaps.PinData;CENTRE D'ANIMATION ARRAS;;;48  RUE DU CARDINAL LEMOINE 75005 PARIS;48.8466107;2.3516157
VEMaps.PinData;CENTRE D'ANIMATION LES ATELIERS CENSIER;;;12  RUE CENSIER 75005 PARIS;48.8409412;2.3546834
VEMaps.PinData;BIBLIOTHEQUE-DISCOTHEQUE MUNICIPALE ANDRE MALRAUX;;;112  RUE DE RENNES 75006 PARIS;48.8479098;2.3277436
VEMaps.PinData;CONSERVATOIRE MUNICIPAL JP RAMEAU;;;3T  RUE MABILLON 75006 PARIS;48.8519482;2.3352732
VEMaps.PinData;ECOLE MATERNELLE 16 RUE SAINT-BENOIT;;;16  RUE SAINT-BENOIT 75006 PARIS;48.854822;2.3328985
VEMaps.PinData;ECOLE MATERNELLE 39 RUE SAINT-ANDRE DES ARTS;;;39  RUE SAINT-ANDRE DES ARTS 75006 PARIS;48.8532887;2.3413316
VEMaps.PinData;ECOLE MATERNELLE 40 RUE MADAME;;;40  RUE MADAME 75006 PARIS;48.8493024;2.3316207
VEMaps.PinData;ECOLE MATERNELLE 6 RUE LITTRE;;;6  RUE LITTRE 75006 PARIS;48.8455047;2.3238075
VEMaps.PinData;ECOLE ÉLÉMENTAIRE 42 RUE MADAME;;;42  RUE MADAME 75006 PARIS;48.8491555;2.3316399
VEMaps.PinData;ECOLE ÉLÉMENTAIRE 6 RUE LITTRE;;;6  RUE LITTRE 75006 PARIS;48.8455047;2.3238075
VEMaps.PinData;ECOLE ÉLÉMENTAIRE 7 RUE JARDINET;;;7  RUE DU JARDINET 75006 PARIS;48.8526538;2.3400269
VEMaps.PinData;ECOLE ÉLÉMENTAIRE 9 RUE VAUGIRARD;;;9  RUE DE VAUGIRARD 75006 PARIS;48.8489345;2.3398368
VEMaps.PinData;ECOLE ÉLÉMENTAIRE 12 RUE SAINT-BENOIT;;;12  RUE SAINT-BENOIT 75006 PARIS;48.8551627;2.3331475
VEMaps.PinData;MAIRIE DU 6E ARRONDISSEMENT;;;78  RUE BONAPARTE 75006 PARIS;48.8505347;2.3327727
VEMaps.PinData;CENTRE ANDRE MALRAUX (LOCAUX GÉRÉS PAR LES SERVICES DE LA MAIRIE DU 6ÈME);;;112  RUE DE RENNES 75006 PARIS;48.8479098;2.3277436
VEMaps.PinData;MAISON DES ASSOCIATIONS RUE SAINT-ANDRÉ DES ARTS;;;60  RUE SAINT-ANDRE DES ARTS 75006 PARIS;48.853533;2.3394132
VEMaps.PinData;CRÈCHE FAMILIALE (ANTENNE) 6 RUE FELIBIEN;;;6  RUE FELIBIEN 75006 PARIS;48.8517518;2.3366696
VEMaps.PinData;GYMNASE SAINT-GERMAIN;;;12  RUE LOBINEAU 75006 PARIS;48.8517866;2.3358702
VEMaps.PinData;GYMNASE VAUGIRARD LITTRE;;;87  RUE DE VAUGIRARD 75006 PARIS;48.8459568;2.3232245
VEMaps.PinData;ANNEXE CENTRE D’ANIMATION SAINT MICHEL;;;19B  RUE HAUTEFEUILLE 75006 PARIS;48.8512179;2.3416902
VEMaps.PinData;CENTRE D'ANIMATION SAINT-MICHEL;;;9  PLACE SAINT-MICHEL 75006 PARIS;48.8534712;2.3437585
VEMaps.PinData;BIBLIOTHEQUE-DISCOTHEQUE MUNICIPALE AMELIE;;;164  RUE DE GRENELLE 75007 PARIS;48.8580522;2.3089662
VEMaps.PinData;BIBLIOTHEQUE-DISCOTHEQUE MUNICIPALE SAINT-SIMON;;;116  RUE DE GRENELLE 75007 PARIS;48.8568258;2.3200337
VEMaps.PinData;CONSERVATOIRE MUNICIPAL ERIK SATIE;;;135B  RUE DE L' UNIVERSITE 75007 PARIS;48.8611308;2.3069929
VEMaps.PinData;ECOLE MATERNELLE 117 B RUE SAINT-DOMINIQUE;;;117B  RUE SAINT-DOMINIQUE 75007 PARIS;48.8590216;2.3042704
VEMaps.PinData;ECOLE MATERNELLE 14 RUE EBLE;;;14  RUE EBLE 75007 PARIS;48.8489372;2.3128817
VEMaps.PinData;ECOLE MATERNELLE 17 RUE VERNEUIL;;;17  RUE DE VERNEUIL 75007 PARIS;48.8575432;2.3304999
VEMaps.PinData;ECOLE MATERNELLE 28 AV RAPP;;;28  AVENUE RAPP 75007 PARIS;48.8586928;2.3003134
VEMaps.PinData;ECOLE MATERNELLE 48 RUE VANEAU;;;48  RUE VANEAU 75007 PARIS;48.8511904;2.3191107
VEMaps.PinData;ECOLE MATERNELLE 8 RUE CHOMEL;;;8  RUE CHOMEL 75007 PARIS;48.8521226;2.3255137
VEMaps.PinData;ECOLE ÉLÉMENTAIRE 42 AV DUQUESNE;;;42  AVENUE DUQUESNE 75007 PARIS;48.8494215;2.3132936
VEMaps.PinData;ECOLE ÉLÉMENTAIRE 8 RUE CHOMEL;;;8  RUE CHOMEL 75007 PARIS;48.8521226;2.3255137
VEMaps.PinData;ECOLE ÉLÉMENTAIRE 1 RUE GENERAL CAMOU;;;1  RUE DU GENERAL CAMOU 75007 PARIS;48.858841;2.2994949
VEMaps.PinData;ECOLE ÉLÉMENTAIRE 10 AV LA MOTTE-PICQUET;;;10  AVENUE DE LA MOTTE-PICQUET 75007 PARIS;48.8569082;2.309097
VEMaps.PinData;ECOLE ÉLÉMENTAIRE 14 RUE EBLE;;;14  RUE EBLE 75007 PARIS;48.8489372;2.3128817
VEMaps.PinData;ECOLE POLYVALENTE 27 RUE LAS CASES;;;27  RUE LAS CASES 75007 PARIS;48.8589413;2.3187603
VEMaps.PinData;MAIRIE DU 7E ARRONDISSEMENT;;;116  RUE DE GRENELLE 75007 PARIS;48.8568258;2.3200337
VEMaps.PinData;MAISON DES ASSOCIATIONS 4 RUE AMELIE;;;4  RUE AMELIE 75007 PARIS;48.8594114;2.3072933
VEMaps.PinData;SALLES JEAN NICOT;;;7  RUE JEAN NICOT 75007 PARIS;48.8607749;2.3073172
VEMaps.PinData;GYMNASE CAMOU;;;35  AVENUE DE LA BOURDONNAIS 75007 PARIS;48.858371;2.2992803
VEMaps.PinData;GYMNASE CLER;;;6  RUE CLER 75007 PARIS;48.8587466;2.3052309
VEMaps.PinData;ANNEXE BOURDONNAIS DU CENTRE D’ANIMATION SAINT-MICHEL;;;105  AVENUE DE LA BOURDONNAIS 75007 PARIS;48.8552765;2.3041493
VEMaps.PinData;BIBLIOTHEQUE MUNICIPALE COURCELLES;;;17T  AVENUE BEAUCOUR 75008 PARIS;48.8776003;2.3029073
VEMaps.PinData;BIBLIOTHEQUE-DISCOTHEQUE MUNICIPALE DE L'EUROPE;;;3  RUE DE LISBONNE 75008 PARIS;48.8777165;2.3175378
VEMaps.PinData;CONSERVATOIRE MUNICIPAL CAMILLE SAINT-SAENS;;;208  RUE DU FAUBOURG SAINT-HONORE 75008 PARIS;48.8752782;2.3047225
VEMaps.PinData;ECOLE MATERNELLE 12 RUE BIENFAISANCE;;;12  RUE DE LA BIENFAISANCE 75008 PARIS;48.8768186;2.3199784
VEMaps.PinData;ECOLE MATERNELLE 16 RUE ROQUEPINE;;;16  RUE ROQUEPINE 75008 PARIS;48.8733069;2.3186293
VEMaps.PinData;ECOLE MATERNELLE 7 RUE MOSCOU;;;7  RUE DE MOSCOU 75008 PARIS;48.8801575;2.3258976
VEMaps.PinData;ECOLE ÉLÉMENTAIRE 4 RUE FLORENCE;;;4  RUE DE FLORENCE 75008 PARIS;48.8823342;2.3255861
VEMaps.PinData;ECOLE ÉLÉMENTAIRE 12 BIS RUE BIENFAISANCE;;;12B  RUE DE LA BIENFAISANCE 75008 PARIS;48.8768186;2.3199784
VEMaps.PinData;ECOLE ÉLÉMENTAIRE 18 RUE SURENE;;;18  RUE DE SURENE 75008 PARIS;48.8711421;2.3205499
VEMaps.PinData;ANNEXE ECOLE POLYVALENTE DU 15 RUE DE MONCEAU;;;12  RUE DE MONCEAU 75008 PARIS;48.8755622;2.3071506
VEMaps.PinData;ECOLE POLYVALENTE 10 RUE PAUL BAUDRY;;;10  RUE PAUL BAUDRY 75008 PARIS;48.8724224;2.307529
VEMaps.PinData;ECOLE POLYVALENTE 15 RUE MONCEAU;;;15  RUE DE MONCEAU 75008 PARIS;48.8758626;2.3071278
VEMaps.PinData;ECOLE POLYVALENTE 8 RUE ROBERT ESTIENNE;;;8  RUE ROBERT ESTIENNE 75008 PARIS;48.8686913;2.305038
VEMaps.PinData;MAIRIE DU 8E ARRONDISSEMENT;;;3  RUE DE LISBONNE 75008 PARIS;48.8777165;2.3175378
VEMaps.PinData;MAISON DES ASSOCIATIONS RUE VERNET;;;23  RUE VERNET 75008 PARIS;48.8718917;2.2981633
VEMaps.PinData;GYMNASE ROQUEPINE;;;18  RUE ROQUEPINE 75008 PARIS;48.8733366;2.3183514
VEMaps.PinData;CENTRE D'ANIMATION ESPACE BEAUJON;;;208  RUE DU FAUBOURG SAINT-HONORE 75008 PARIS;48.8752782;2.3047225
VEMaps.PinData;BIBLIOTHEQUE CHAPTAL;;;26B  RUE CHAPTAL 75009 PARIS;48.8811011;2.33234
VEMaps.PinData;BIBLIOTHEQUE MUNICIPALE DROUOT;;;11  RUE DROUOT 75009 PARIS;48.8734499;2.3404399
VEMaps.PinData;BIBLIOTHEQUE-DISCOTHEQUE MUNICIPALE VALEYRE;;;24B  RUE DE ROCHECHOUART 75009 PARIS;48.8781136;2.3449354
VEMaps.PinData;CONSERVATOIRE MUNICIPAL NADIA ET LILI BOULANGER;;;17  RUE DE ROCHECHOUART 75009 PARIS;48.8774789;2.344568
VEMaps.PinData;ECOLE MATERNELLE 11 RUE GRANGE BATELIERE;;;11  RUE DE LA GRANGE BATELIERE 75009 PARIS;48.8731274;2.3422006
VEMaps.PinData;ECOLE MATERNELLE 12 RUE CHAPTAL;;;12  RUE CHAPTAL 75009 PARIS;48.8808478;2.3335536
VEMaps.PinData;ECOLE MATERNELLE 12 RUE CLAUZEL;;;12  RUE CLAUZEL 75009 PARIS;48.8791636;2.3385549
VEMaps.PinData;ECOLE MATERNELLE 22 RUE ROCHECHOUART;;;22  RUE DE ROCHECHOUART 75009 PARIS;48.8779178;2.3448663
VEMaps.PinData;ECOLE MATERNELLE 30 RUE RODIER;;;30  RUE RODIER 75009 PARIS;48.8786285;2.3429776
VEMaps.PinData;ECOLE MATERNELLE 34 RUE BRUXELLES;;;34  RUE DE BRUXELLES 75009 PARIS;48.8829284;2.328718
VEMaps.PinData;ECOLE MATERNELLE 34 RUE BUFFAULT;;;34  RUE BUFFAULT 75009 PARIS;48.8764446;2.3424611
VEMaps.PinData;ECOLE MATERNELLE 5 RUE MILTON;;;5  RUE MILTON 75009 PARIS;48.8775761;2.3407478
VEMaps.PinData;ECOLE MATERNELLE 68 RUE DE ROCHECHOUART;;;68  RUE DE ROCHECHOUART 75009 PARIS;48.8813221;2.3465635
VEMaps.PinData;ECOLE MATERNELLE 9 BIS RUE BLANCHE;;;9B  RUE BLANCHE 75009 PARIS;48.8779855;2.3318101
VEMaps.PinData;ECOLE ÉLÉMENTAIRE 32 RUE BRUXELLES;;;32  RUE DE BRUXELLES 75009 PARIS;48.882955;2.3288386
VEMaps.PinData;ECOLE ÉLÉMENTAIRE 32 RUE BUFFAULT;;;32  RUE BUFFAULT 75009 PARIS;48.8763052;2.3423889
VEMaps.PinData;ECOLE ÉLÉMENTAIRE 45 RUE DE LA TOUR D’AUVERGNE;;;45  RUE DE LA TOUR D'AUVERGNE 75009 PARIS;48.8797379;2.3409384
VEMaps.PinData;ECOLE ÉLÉMENTAIRE 5 RUE MILTON;;;5  RUE MILTON 75009 PARIS;48.8775761;2.3407478
VEMaps.PinData;ECOLE ÉLÉMENTAIRE 9 RUE BLANCHE;;;9  RUE BLANCHE 75009 PARIS;48.8779855;2.3318101
VEMaps.PinData;ECOLE ÉLÉMENTAIRE 12 RUE CHAPTAL;;;12  RUE CHAPTAL 75009 PARIS;48.8808478;2.3335536
VEMaps.PinData;ECOLE ÉLÉMENTAIRE 15 RUE TURGOT;;;15  RUE TURGOT 75009 PARIS;48.8803593;2.3452353
VEMaps.PinData;ECOLE ÉLÉMENTAIRE 16 RUE VICTOIRE;;;16  RUE DE LA VICTOIRE 75009 PARIS;48.8751663;2.3392258
VEMaps.PinData;ECOLE ÉLÉMENTAIRE 21 RUE MILTON;;;21  RUE MILTON 75009 PARIS;48.8787605;2.3411733
VEMaps.PinData;ECOLE ELEMENTAIRE 10 RUE DE CLICHY;;;10  RUE DE CLICHY  PARIS;48.8777392;2.3305537
VEMaps.PinData;MAIRIE DU 9E ARRONDISSEMENT;;;6  RUE DROUOT 75009 PARIS;48.8726532;2.3404013
VEMaps.PinData;PARKING DE L'HOTEL DROUOT 12-14 RUE CHAUCHAT;;;12  RUE CHAUCHAT 75009 PARIS;48.873225;2.3395667
VEMaps.PinData;MAISON DES ASSOCIATIONS RUE VICTOR MASSÉ;;;54  RUE JEAN-BAPTISTE PIGALLE (ANNEXE AU 35 RUE VICTOR MASSE) 75009 PARIS;48.8809697;2.3369342
VEMaps.PinData;ESPACE ASSOCIATIF CHATEAUDUN;;;32  RUE DU CHATEAUDUN  PARIS;48.8762008;2.3364452
VEMaps.PinData;GYMNASE PAUL GAUGUIN;;;33B  RUE MILTON 75009 PARIS;48.8791857;2.3421803
VEMaps.PinData;GYMNASE VALEYRE;;;24B  RUE DE ROCHECHOUART 75009 PARIS;48.8781136;2.3449354
VEMaps.PinData;CENTRE D'ANIMATION VALEYRE;;;24B  RUE DE ROCHECHOUART 75009 PARIS;48.8781136;2.3449354
VEMaps.PinData;ANTENNE JEUNES NEUVIEME;;;60  RUE LA FAYETTE 75009 PARIS;48.8755578;2.3427216
VEMaps.PinData;BIBLIOTHEQUE MUNICIPALE CHATEAU D'EAU;;;72  RUE DU FAUBOURG SAINT-MARTIN 75010 PARIS;48.871749;2.3572353
VEMaps.PinData;BIBLIOTHEQUE-DISCOTHEQUE MUNICIPALE FRANCOIS VILLON;;;81B  BOULEVARD DE LA VILLETTE 75010 PARIS;48.8771491;2.3707509
VEMaps.PinData;BIBLIOTHEQUE-DISCOTHEQUE MUNICIPALE LANCRY;;;11  RUE DE LANCRY 75010 PARIS;48.869387;2.360108
VEMaps.PinData;CONSERVATOIRE MUNICIPAL HECTOR BERLIOZ;;;6  RUE PIERRE BULLET 75010 PARIS;48.8718249;2.3583399
VEMaps.PinData;ECOLE MATERNELLE 11 RUE LEON SCHWARTZENBERG;;;11  SQUARE ALBAN SATRAGNE 75010 PARIS;48.8752362;2.3546508
VEMaps.PinData;ECOLE MATERNELLE 155 AV PARMENTIER;;;155  AVENUE PARMENTIER 75010 PARIS;48.8716858;2.3697674
VEMaps.PinData;ECOLE MATERNELLE 18 RUE HOPITAL SAINT-LOUIS;;;18  RUE DE L' HOPITAL SAINT-LOUIS 75010 PARIS;48.8755343;2.3645734
VEMaps.PinData;ECOLE MATERNELLE 20 RUE PARADIS;;;20  RUE DE PARADIS 75010 PARIS;48.8748395;2.3537323
VEMaps.PinData;ECOLE MATERNELLE 23 PAS RECOLLETS;;;23  PASSAGE DES RECOLLETS 75010 PARIS;48.8747249;2.3607992
VEMaps.PinData;ECOLE MATERNELLE 28 RUE ECLUSES SAINT-MARTIN;;;28  RUE DES ECLUSES SAINT-MARTIN 75010 PARIS;48.8773714;2.3662381
VEMaps.PinData;ECOLE MATERNELLE 3 RUE BELZUNCE;;;3  RUE DE BELZUNCE 75010 PARIS;48.8792296;2.352857
VEMaps.PinData;ECOLE MATERNELLE 39 RUE AQUEDUC;;;39  RUE DE L' AQUEDUC 75010 PARIS;48.8825255;2.364011
VEMaps.PinData;ECOLE MATERNELLE 4 RUE PIERRE BULLET;;;4  RUE PIERRE BULLET 75010 PARIS;48.8716312;2.3580968
VEMaps.PinData;ECOLE MATERNELLE 49 RUE LOUIS BLANC;;;49  RUE LOUIS BLANC 75010 PARIS;48.8824236;2.3626745
VEMaps.PinData;ECOLE MATERNELLE 5 RUE BOY-ZELENSKI;;;5  RUE BOY-ZELENSKI 75010 PARIS;48.8767174;2.3678892
VEMaps.PinData;ECOLE MATERNELLE 6 RUE LEGOUVE;;;6  RUE LEGOUVE 75010 PARIS;48.8722549;2.3622551
VEMaps.PinData;ECOLE MATERNELLE 9 RUE MARTEL;;;9  RUE MARTEL 75010 PARIS;48.8739648;2.3529123
VEMaps.PinData;ECOLE ÉLÉMENTAIRE 3 RUE BELZUNCE;;;3  RUE DE BELZUNCE 75010 PARIS;48.8792296;2.352857
VEMaps.PinData;ECOLE ÉLÉMENTAIRE 33 AV CLAUDE VELLEFAUX;;;33  AVENUE CLAUDE VELLEFAUX 75010 PARIS;48.8768706;2.3701514
VEMaps.PinData;ECOLE ÉLÉMENTAIRE 34 RUE FAUBOURG SAINT-DENIS;;;34  RUE DU FAUBOURG SAINT-DENIS 75010 PARIS;48.871119;2.353676
VEMaps.PinData;ECOLE ÉLÉMENTAIRE 39 RUE AQUEDUC;;;39  RUE DE L' AQUEDUC 75010 PARIS;48.8825255;2.364011
VEMaps.PinData;ECOLE ÉLÉMENTAIRE 49 BIS RUE LOUIS BLANC;;;49B  RUE LOUIS BLANC 75010 PARIS;48.8824236;2.3626745
VEMaps.PinData;ECOLE ÉLÉMENTAIRE 9 RUE MARTEL;;;9  RUE MARTEL 75010 PARIS;48.8739648;2.3529123
VEMaps.PinData;ECOLE ÉLÉMENTAIRE 5 RUE HOPITAL SAINT LOUIS;;;5  RUE DE L' HOPITAL SAINT-LOUIS 75010 PARIS;48.8748887;2.3654847
VEMaps.PinData;ÉCOLE ÉLÉMENTAIRE 21 RUE SAMBRE ET MEUSE;;;21  RUE DE SAMBRE-ET-MEUSE 75010 PARIS;48.8748568;2.3717843
VEMaps.PinData;ECOLE ELEMENTAIRE 41 RUE DE CHABROL;;;41  RUE DE CHABROL 75010 PARIS;48.8768303;2.3529625
VEMaps.PinData;ECOLE ÉLÉMENTAIRE 10 RUE EUGENE VARLIN;;;10  RUE EUGENE VARLIN 75010 PARIS;48.8779188;2.3651836
VEMaps.PinData;ECOLE ÉLÉMENTAIRE 159 AV PARMENTIER;;;159  AVENUE PARMENTIER 75010 PARIS;48.8717733;2.3698829
VEMaps.PinData;ECOLE ÉLÉMENTAIRE 17 RUE MARSEILLE;;;17  RUE DE MARSEILLE 75010 PARIS;48.8717618;2.3638557
VEMaps.PinData;ECOLE ÉLÉMENTAIRE 19 PAS RECOLLETS;;;19  PASSAGE DES RECOLLETS 75010 PARIS;48.8741639;2.3605305
VEMaps.PinData;ECOLE ÉLÉMENTAIRE 200 RUE SAINT-MAUR;;;200  RUE SAINT-MAUR 75010 PARIS;48.8724317;2.3715126
VEMaps.PinData;ECOLE ÉLÉMENTAIRE 216 BIS RUE LAFAYETTE;;;216B  RUE LA FAYETTE 75010 PARIS;48.8818896;2.3672043
VEMaps.PinData;ECOLE POLYVALENTE 16 RUE VICQ D'AZIR;;;16  RUE VICQ D'AZIR 75010 PARIS;48.8760763;2.3705049
VEMaps.PinData;ECOLE POLYVALENTE 15 RUE LANCRY;;;15  RUE DE LANCRY 75010 PARIS;48.8695394;2.3603311
VEMaps.PinData;MAIRIE DU 10E ARRONDISSEMENT;;;72  RUE DU FAUBOURG SAINT-MARTIN 75010 PARIS;48.871749;2.3572353
VEMaps.PinData;MAISON DES ASSOCIATIONS QUAI DE VALMY;;;206  QUAI DE VALMY 75010 PARIS;48.8816139;2.3685937
VEMaps.PinData;CRÈCHE COLLECTIVE 6 RUE LÉON SCHWARTZENBERG;;;9  SQUARE ALBAN SATRAGNE 75010 PARIS;48.8753867;2.354848
VEMaps.PinData;GYMNASE CHATEAU LANDON;;;46  RUE DU CHATEAU LANDON 75010 PARIS;48.8830839;2.363826
VEMaps.PinData;GYMNASE DE LA GRANGE AUX BELLES;;;17  RUE BOY-ZELENSKI 75010 PARIS;48.8774437;2.3684156
VEMaps.PinData;GYMNASE JEAN VERDIER;;;11  RUE DE LANCRY 75010 PARIS;48.869387;2.360108
VEMaps.PinData;GYMNASE JEMMAPES;;;116  QUAI DE JEMMAPES 75010 PARIS;48.8748947;2.3636982
VEMaps.PinData;GYMNASE PARMENTIER;;;155  AVENUE PARMENTIER 75010 PARIS;48.8716858;2.3697674
VEMaps.PinData;CENTRE D'ANIMATION ESPACE CHATEAU LANDON;;;31  RUE DU CHATEAU LANDON 75010 PARIS;48.8832165;2.363814
VEMaps.PinData;CENTRE D'ANIMATION ESPACE JEMMAPES;;;116  QUAI DE JEMMAPES 75010 PARIS;48.8748947;2.3636982
VEMaps.PinData;CENTRE D'ANIMATION GRANGE AUX BELLES;;;6  RUE BOY-ZELENSKI 75010 PARIS;48.8767018;2.3679175
VEMaps.PinData;CENTRE D'ANIMATION JEAN VERDIER;;;11  RUE DE LANCRY 75010 PARIS;48.869387;2.360108
VEMaps.PinData;BIBLIOTHEQUE-DISCOTHEQUE MUNICIPALE FAIDHERBE;;;18  RUE FAIDHERBE 75011 PARIS;48.8515538;2.3839637
VEMaps.PinData;BIBLIOTHEQUE-DISCOTHEQUE-VIDEOTHEQUE MUNICIPALE PARMENTIER;;;20B  AVENUE PARMENTIER 75011 PARIS;48.860151;2.3789262
VEMaps.PinData;CONSERVATOIRE MUNICIPAL CHARLES MUNCH;;;7  RUE DURANTI 75011 PARIS;48.8610417;2.3848833
VEMaps.PinData;ECOLE MATERNELLE 10 BIS RUE DURANTI;;;10B  RUE DURANTI 75011 PARIS;48.8605628;2.383659
VEMaps.PinData;ECOLE MATERNELLE 11 BIS AV PARMENTIER;;;11B  AVENUE PARMENTIER 75011 PARIS;48.859921;2.3789006
VEMaps.PinData;ECOLE MATERNELLE 111 AV PARMENTIER;;;111  AVENUE PARMENTIER 75011 PARIS;48.86798;2.372282
VEMaps.PinData;ECOLE MATERNELLE 13 BD RICHARD LENOIR;;;13  BOULEVARD RICHARD LENOIR 75011 PARIS;48.8560456;2.3700311
VEMaps.PinData;ECOLE MATERNELLE 14 RUE MERLIN;;;14  RUE MERLIN 75011 PARIS;48.8600489;2.3859133
VEMaps.PinData;ECOLE MATERNELLE 144 RUE ROQUETTE;;;144  RUE DE LA ROQUETTE 75011 PARIS;48.8580805;2.3822529
VEMaps.PinData;ECOLE MATERNELLE 18 RUE FAIDHERBE;;;18  RUE FAIDHERBE 75011 PARIS;48.8515538;2.3839637
VEMaps.PinData;ECOLE MATERNELLE 19 RUE ALPHONSE BAUDIN;;;19  RUE ALPHONSE BAUDIN 75011 PARIS;48.8612117;2.3700873
VEMaps.PinData;ECOLE MATERNELLE 2 PAS BESLAY;;;2  PASSAGE BESLAY 75011 PARIS;48.862913;2.3731441
VEMaps.PinData;ECOLE MATERNELLE 31 RUE GODEFROY CAVAIGNAC;;;31  RUE GODEFROY CAVAIGNAC 75011 PARIS;48.8557985;2.38075
VEMaps.PinData;ECOLE MATERNELLE 39 RUE SAINT-BERNARD;;;39  RUE SAINT-BERNARD 75011 PARIS;48.8531664;2.3806465
VEMaps.PinData;ECOLE MATERNELLE 39 RUE TROIS BORNES;;;39  RUE DES TROIS BORNES 75011 PARIS;48.867261;2.3744773
VEMaps.PinData;ECOLE MATERNELLE 4 BIS RUE PRESENTATION;;;4B  RUE DE LA PRESENTATION 75011 PARIS;48.8708508;2.3773653
VEMaps.PinData;ECOLE MATERNELLE 4 PAS BULLOURDE;;;4  PASSAGE BULLOURDE 75011 PARIS;48.8545008;2.3763784
VEMaps.PinData;ECOLE MATERNELLE 44 RUE EMILE LEPEU;;;44  RUE EMILE LEPEU 75011 PARIS;48.8567157;2.3882484
VEMaps.PinData;ECOLE MATERNELLE 5 IMP BALEINE;;;5  IMPASSE DE LA BALEINE 75011 PARIS;48.8672143;2.3777051
VEMaps.PinData;ECOLE MATERNELLE 54 RUE SERVAN;;;54  RUE SERVAN 75011 PARIS;48.8630565;2.3818251
VEMaps.PinData;ECOLE MATERNELLE 6 AV BOUVINES;;;6  AVENUE DE BOUVINES 75011 PARIS;48.8502712;2.3965675
VEMaps.PinData;ECOLE MATERNELLE 7 PAS PIVER;;;7  PASSAGE PIVER 75011 PARIS;48.8705385;2.3744658
VEMaps.PinData;ECOLE MATERNELLE 9 RUE POPINCOURT;;;9  RUE POPINCOURT 75011 PARIS;48.8573519;2.3774323
VEMaps.PinData;ECOLE ÉLÉMENTAIRE 31 RUE SAINT-BERNARD;;;31  RUE SAINT-BERNARD 75011 PARIS;48.8524695;2.3810741
VEMaps.PinData;ECOLE ÉLÉMENTAIRE 35 RUE GODEFROY CAVAIGNAC;;;35  RUE GODEFROY CAVAIGNAC 75011 PARIS;48.8559867;2.3805733
VEMaps.PinData;ECOLE ÉLÉMENTAIRE 39 RUE ALEXANDRE DUMAS;;;39  RUE ALEXANDRE DUMAS 75011 PARIS;48.8537046;2.3932983
VEMaps.PinData;ECOLE ÉLÉMENTAIRE 39 RUE TROIS BORNES;;;39  RUE DES TROIS BORNES 75011 PARIS;48.867261;2.3744773
VEMaps.PinData;ECOLE ÉLÉMENTAIRE 4 AV BOUVINES;;;4  AVENUE DE BOUVINES 75011 PARIS;48.8497889;2.3962469
VEMaps.PinData;ECOLE ÉLÉMENTAIRE 4 RUE KELLER;;;4  RUE KELLER 75011 PARIS;48.8531901;2.3769938
VEMaps.PinData;ECOLE ÉLÉMENTAIRE 98 AV REPUBLIQUE;;;98  AVENUE DE LA REPUBLIQUE 75011 PARIS;48.8637882;2.382271
VEMaps.PinData;ECOLE ÉLÉMENTAIRE 75 BD BELLEVILLE;;;75  BOULEVARD DE BELLEVILLE 75011 PARIS;48.8710861;2.3777411
VEMaps.PinData;ECOLE ÉLÉMENTAIRE 1 RUE PIHET;;;1  RUE PIHET 75011 PARIS;48.8633534;2.3740441
VEMaps.PinData;ECOLE ÉLÉMENTAIRE 100 AV REPUBLIQUE;;;100  AVENUE DE LA REPUBLIQUE 75011 PARIS;48.8637183;2.3826322
VEMaps.PinData;ECOLE ÉLÉMENTAIRE 109 AV PARMENTIER;;;109  AVENUE PARMENTIER 75011 PARIS;48.8675891;2.3726824
VEMaps.PinData;ECOLE ÉLÉMENTAIRE 11 BIS AV PARMENTIER;;;11B  AVENUE PARMENTIER 75011 PARIS;48.859921;2.3789006
VEMaps.PinData;ECOLE ÉLÉMENTAIRE 13 RUE FROMENT;;;13  RUE FROMENT 75011 PARIS;48.8573092;2.3725696
VEMaps.PinData;ECOLE ÉLÉMENTAIRE 14 RUE TITON;;;14  RUE TITON 75011 PARIS;48.8514217;2.3865808
VEMaps.PinData;ECOLE ÉLÉMENTAIRE 17 RUE ALPHONSE BAUDIN;;;17  RUE ALPHONSE BAUDIN 75011 PARIS;48.8610379;2.3701015
VEMaps.PinData;ECOLE ÉLÉMENTAIRE 22 RUE SAINT-MAUR;;;22  RUE SAINT-MAUR 75011 PARIS;48.8604509;2.3819177
VEMaps.PinData;ECOLE ÉLÉMENTAIRE 24 RUE SAINT-SEBASTIEN;;;24  RUE SAINT-SEBASTIEN 75011 PARIS;48.8611637;2.3695317
VEMaps.PinData;ECOLE ÉLÉMENTAIRE 29 RUE SERVAN;;;29  RUE SERVAN 75011 PARIS;48.8608215;2.3829721
VEMaps.PinData;MAIRIE DU 11E ARRONDISSEMENT;;;12  PLACE LEON BLUM 75011 PARIS;48.8579146;2.3794361
VEMaps.PinData;ESPACE JEAN AICARD ;;;10  AVENUE JEAN AICARD 75011 PARIS;48.8650914;2.3814948
VEMaps.PinData;MAISON DES ASSOCIATIONS RUE DU GÉNÉRAL RENAULT;;;8  RUE DU GENERAL RENAULT 75011 PARIS;48.8612641;2.3784709
VEMaps.PinData;SALLES ASSOCIATIVES POLYVALENTES « OLYMPE DE GOUGES »;;;15  RUE MERLIN 75011 PARIS;48.8604229;2.3853887
VEMaps.PinData;GYMNASE CANDIE;;;11  RUE DE CANDIE 75011 PARIS;48.8513875;2.3799709
VEMaps.PinData;GYMNASE DE LA COUR DES LIONS;;;9  RUE ALPHONSE BAUDIN 75011 PARIS;48.8606777;2.3703684
VEMaps.PinData;GYMNASE DE LA FONTAINE AU ROI;;;100  RUE DE LA FONTAINE AU ROI 75011 PARIS;48.8695285;2.3785614
VEMaps.PinData;GYMNASE GEORGES RIGAL;;;115  BOULEVARD DE CHARONNE 75011 PARIS;48.8564792;2.3941808
VEMaps.PinData;GYMNASE MAURICE BERLEMONT;;;22  RUE DE L' ORILLON 75011 PARIS;48.8700846;2.3759812
VEMaps.PinData;GYMNASE MUNICIPAL JAPY;;;2  RUE JAPY 75011 PARIS;48.8560471;2.38241
VEMaps.PinData;GYMNASE PHILIPPE-AUGUSTE;;;68  AVENUE PHILIPPE-AUGUSTE 75011 PARIS;48.8538804;2.3925235
VEMaps.PinData;CENTRE D'ANIMATION MERCOEUR;;;4  RUE MERCOEUR 75011 PARIS;48.8569015;2.3832287
VEMaps.PinData;ANTENNE JEUNES ORILLON;;;43B  RUE DE L' ORILLON 75011 PARIS;48.8705898;2.3775618
VEMaps.PinData;BIBLIOTHEQUE MUNICIPALE DIDEROT;;;42  AVENUE DAUMESNIL 75012 PARIS;48.8459507;2.3775478
VEMaps.PinData;BIBLIOTHEQUE-DISCOTHEQUE MUNICIPALE SAINT-ELOI;;;23  RUE DU COLONEL ROZANOFF 75012 PARIS;48.8456169;2.3871803
VEMaps.PinData;MEDIATHEQUE HELENE BERR;;;70  RUE DE PICPUS 75012 PARIS;48.8425799;2.3974463
VEMaps.PinData;CONSERVATOIRE MUNICIPAL PAUL DUKAS;;;45  RUE DE PICPUS 75012 PARIS;48.8436059;2.3966024
VEMaps.PinData;ECOLE MATERNELLE 12 RUE ARTAGNAN;;;12  RUE D' ARTAGNAN 75012 PARIS;48.8453639;2.3871811
VEMaps.PinData;ECOLE MATERNELLE 13 AV ARMAND ROUSSEAU;;;13  AVENUE ARMAND ROUSSEAU 75012 PARIS;48.8360121;2.4089504
VEMaps.PinData;ECOLE MATERNELLE 15 RUE ELISA LEMONNIER;;;15  RUE ELISA LEMONNIER 75012 PARIS;48.8407853;2.3895123
VEMaps.PinData;ECOLE MATERNELLE 16 RUE CHARLES BAUDELAIRE;;;16  RUE CHARLES BAUDELAIRE 75012 PARIS;48.8494285;2.376898
VEMaps.PinData;ECOLE MATERNELLE 16 RUE MARSOULAN;;;16  RUE MARSOULAN 75012 PARIS;48.8462873;2.4034062
VEMaps.PinData;ECOLE MATERNELLE 167 RUE BERCY;;;167  RUE DE BERCY 75012 PARIS;48.8425458;2.3752521
VEMaps.PinData;ECOLE MATERNELLE 2 PL LACHAMBEAUDIE;;;2  PLACE LACHAMBEAUDIE 75012 PARIS;48.8356835;2.3860976
VEMaps.PinData;ECOLE MATERNELLE 253 BIS AV DAUMESNIL;;;253B  AVENUE DAUMESNIL 75012 PARIS;48.8374343;2.4020982
VEMaps.PinData;ECOLE MATERNELLE 28 RUE BRECHE AUX LOUPS;;;28  RUE DE LA BRECHE AUX LOUPS 75012 PARIS;48.8374155;2.3940482
VEMaps.PinData;ECOLE MATERNELLE 33 RUE POMMARD;;;33  RUE DE POMMARD 75012 PARIS;48.8365031;2.3837972
VEMaps.PinData;ECOLE MATERNELLE 40 RUE JACQUES HILLAIRET;;;40  RUE JACQUES HILLAIRET 75012 PARIS;48.8433052;2.3890139
VEMaps.PinData;ECOLE MATERNELLE 40 RUE MEUNIERS;;;40  RUE DES MEUNIERS 75012 PARIS;48.8348047;2.396586
VEMaps.PinData;ECOLE MATERNELLE 41 RUE TRAVERSIERE;;;41  RUE TRAVERSIERE 75012 PARIS;48.8475296;2.3732337
VEMaps.PinData;ECOLE MATERNELLE 42 AV DOCTEUR ARNOLD NETTER;;;42  AVENUE DU DOCTEUR ARNOLD NETTER 75012 PARIS;48.8437744;2.4056468
VEMaps.PinData;ECOLE MATERNELLE 45 RUE PICPUS;;;45  RUE DE PICPUS 75012 PARIS;48.8436059;2.3966024
VEMaps.PinData;ECOLE MATERNELLE 56 RUE PICPUS;;;56  RUE DE PICPUS 75012 PARIS;48.8435512;2.3966451
VEMaps.PinData;ECOLE MATERNELLE 59 RUE REUILLY;;;59  RUE DE REUILLY 75012 PARIS;48.8457658;2.3885968
VEMaps.PinData;ECOLE MATERNELLE 7 RUE JEAN BOUTON;;;7  RUE JEAN BOUTON 75012 PARIS;48.8455267;2.3769324
VEMaps.PinData;ECOLE MATERNELLE 70 AV DAUMESNIL;;;70  AVENUE DAUMESNIL 75012 PARIS;48.8446802;2.3804037
VEMaps.PinData;ECOLE MATERNELLE 8 AV LAMORICIERE;;;8  AVENUE LAMORICIERE 75012 PARIS;48.8447138;2.4120987
VEMaps.PinData;ECOLE ÉLÉMENTAIRE 315 RUE CHARENTON;;;315  RUE DE CHARENTON 75012 PARIS;48.8335845;2.3951674
VEMaps.PinData;ECOLE ÉLÉMENTAIRE 4 RUE BIGNON;;;4  RUE BIGNON 75012 PARIS;48.8404834;2.3886911
VEMaps.PinData;ECOLE ÉLÉMENTAIRE 4 RUE POMMARD;;;4  RUE DE POMMARD 75012 PARIS;48.8356418;2.384936
VEMaps.PinData;ECOLE ÉLÉMENTAIRE 51 RUE CHARENTON;;;51  RUE DE CHARENTON 75012 PARIS;48.8510506;2.3727372
VEMaps.PinData;ECOLE ÉLÉMENTAIRE 52 RUE WATTIGNIES;;;52  RUE DE WATTIGNIES 75012 PARIS;48.8355135;2.3972522
VEMaps.PinData;ECOLE ÉLÉMENTAIRE 8 RUE CHARLES BAUDELAIRE;;;8  RUE CHARLES BAUDELAIRE 75012 PARIS;48.8484961;2.3760687
VEMaps.PinData;ECOLE ÉLÉMENTAIRE A 10 AV LAMORICIERE;;;10  AVENUE LAMORICIERE 75012 PARIS;48.8448293;2.412405
VEMaps.PinData;ECOLE ÉLÉMENTAIRE A 253 TER AV DAUMESNIL;;;253T  AVENUE DAUMESNIL 75012 PARIS;48.8374343;2.4020982
VEMaps.PinData;ECOLE ÉLÉMENTAIRE A 5 RUE JEAN BOUTON;;;5  RUE JEAN BOUTON 75012 PARIS;48.8456684;2.3768131
VEMaps.PinData;ECOLE ÉLÉMENTAIRE A 56 RUE PICPUS;;;56  RUE DE PICPUS 75012 PARIS;48.8435512;2.3966451
VEMaps.PinData;ECOLE ÉLÉMENTAIRE A 57 RUE REUILLY;;;57  RUE DE REUILLY 75012 PARIS;48.8458217;2.3885239
VEMaps.PinData;ECOLE ÉLÉMENTAIRE B 40 BD DIDEROT;;;40  BOULEVARD DIDEROT 75012 PARIS;48.8461592;2.3773753
VEMaps.PinData;ECOLE ÉLÉMENTAIRE B 56 RUE PICPUS;;;56  RUE DE PICPUS 75012 PARIS;48.8435512;2.3966451
VEMaps.PinData;ECOLE ÉLÉMENTAIRE B 57 RUE REUILLY;;;57  RUE DE REUILLY 75012 PARIS;48.8458217;2.3885239
VEMaps.PinData;ECOLE ÉLÉMENTAIRE B 8 AV LAMORICIERE;;;8  AVENUE LAMORICIERE 75012 PARIS;48.8447138;2.4120987
VEMaps.PinData;ECOLE ÉLÉMENTAIRE B 83 AV GENERAL MICHEL BIZOT;;;83  AVENUE DU GENERAL MICHEL BIZOT 75012 PARIS;48.8373918;2.4035698
VEMaps.PinData;ECOLE ÉLÉMENTAIRE 165 RUE BERCY;;;165  RUE DE BERCY 75012 PARIS;48.8424635;2.3753291
VEMaps.PinData;ECOLE ÉLÉMENTAIRE 18 RUE BRECHE AUX LOUPS;;;18  RUE DE LA BRECHE AUX LOUPS 75012 PARIS;48.8374256;2.3940579
VEMaps.PinData;ECOLE ÉLÉMENTAIRE 19 RUE MARSOULAN;;;19  RUE MARSOULAN 75012 PARIS;48.8464223;2.4031434
VEMaps.PinData;ECOLE ÉLÉMENTAIRE 22 RUE GABRIEL LAME;;;22  RUE GABRIEL LAME 75012 PARIS;48.8341619;2.3869135
VEMaps.PinData;ECOLE ÉLÉMENTAIRE 27 RUE REUILLY;;;27  RUE DE REUILLY 75012 PARIS;48.8479979;2.3864564
VEMaps.PinData;ECOLE POLYVALENTE 16 RUE MONTEMPOIVRE;;;16  RUE DE MONTEMPOIVRE 75012 PARIS;48.8401565;2.4068883
VEMaps.PinData;ECOLE POLYVALENTE GERTY ARCHIMEDE;;;5  RUE BARON LE ROY 75012 PARIS;48.8356308;2.3869992
VEMaps.PinData;MAIRIE DU 12E ARRONDISSEMENT;;;130  AVENUE DAUMESNIL 75012 PARIS;48.8411363;2.3888422
VEMaps.PinData;MAISON DES ASSOCIATIONS AVENUE DAUMESNIL;;;181  AVENUE DAUMESNIL 75012 PARIS;48.8406323;2.392377
VEMaps.PinData;ESPACE REUILLY;;;21  RUE ANTOINE-JULIEN HENARD 75012 PARIS;48.8425506;2.3895735
VEMaps.PinData;GYMNASE CARNOT;;;26  BOULEVARD CARNOT 75012 PARIS;48.8429684;2.4129258
VEMaps.PinData;GYMNASE DAUMESNIL;;;74  AVENUE DAUMESNIL 75012 PARIS;48.8445871;2.3809061
VEMaps.PinData;GYMNASE DE LA LANCETTE;;;27  RUE NICOLAI 75012 PARIS;48.8365063;2.3949841
VEMaps.PinData;GYMNASE PICPUS;;;56  RUE DE PICPUS 75012 PARIS;48.8435512;2.3966451
VEMaps.PinData;CENTRE D'ANIMATION BERCY;;;51  RUE FRANCOIS TRUFFAUT 75012 PARIS;48.8343411;2.387233
VEMaps.PinData;CENTRE D'ANIMATION MAURICE RAVEL;;;2  AVENUE MAURICE RAVEL 75012 PARIS;48.8410556;2.4114746
VEMaps.PinData;CENTRE D'ANIMATION REUILLY;;;19  RUE ANTOINE-JULIEN HENARD 75012 PARIS;48.8425562;2.3895826
VEMaps.PinData;CENTRE D'ANIMATION SAINT-ELOI (ANTENNE ERARD);;;10  RUE ERARD 75012 PARIS;48.8454154;2.3844756
VEMaps.PinData;CENTRE D'ANIMATION STINVILLE MONTGALLET;;;5  PASSAGE STINVILLE 75012 PARIS;48.8440705;2.3884488
VEMaps.PinData;CENTRE D'ANIMATION VILLIOT RAPEE;;;36  QUAI DE LA RAPEE 75012 PARIS;48.8427054;2.3717894
VEMaps.PinData;MAISON DES ENSEMBLES;;;3  RUE D' ALIGRE 75012 PARIS;48.8481113;2.3771102
VEMaps.PinData;ANTENNE JEUNES CLAUDE DECAEN;;;91  RUE CLAUDE DECAEN 75012 PARIS;48.8385778;2.3962439
VEMaps.PinData;BIBLIOTHEQUE-DISCOTHEQUE MUNICIPALE GLACIERE;;;132  RUE DE LA GLACIERE 75013 PARIS;48.8274187;2.3419732
VEMaps.PinData;BIBLIOTHEQUE-DISCOTHEQUE MUNICIPALE ITALIE;;;211  BOULEVARD VINCENT AURIOL 75013 PARIS;48.8308813;2.3571105
VEMaps.PinData;BIBLIOTHEQUE-DISCOTHEQUE-VIDEOTHEQUE MUNICIPALE JEAN-PIERRE MELVILLE;;;79  RUE NATIONALE 75013 PARIS;48.8266611;2.366538
VEMaps.PinData;CONSERVATOIRE MUNICIPAL MAURICE RAVEL;;;21  RUE ALBERT BAYET 75013 PARIS;48.8312003;2.3582865
VEMaps.PinData;ANNEXE MATERNELLE DU 40 RUE VANDREZANNE;;;31  RUE BOBILLOT 75013 PARIS;48.8290894;2.3535274
VEMaps.PinData;ECOLE MATERNELLE (RELAIS) 34 RUE CHARLES MOUREU;;;34  RUE CHARLES MOUREU 75013 PARIS;48.8286871;2.3617626
VEMaps.PinData;ECOLE MATERNELLE 100 RUE DE LA GLACIERE;;;10  RUE SOEUR CATHERINE MARIE 75013 PARIS;48.82986;2.3429823
VEMaps.PinData;ECOLE MATERNELLE 103 RUE CHATEAU DES RENTIERS;;;103  RUE DU CHATEAU DES RENTIERS 75013 PARIS;48.8280433;2.3671444
VEMaps.PinData;ECOLE MATERNELLE 11 RUE AUGUSTE PERRET;;;11  RUE AUGUSTE PERRET 75013 PARIS;48.8250286;2.3602955
VEMaps.PinData;ECOLE MATERNELLE 11 RUE CROULEBARBE;;;11  RUE DE CROULEBARBE 75013 PARIS;48.834255;2.352378
VEMaps.PinData;ECOLE MATERNELLE 12 RUE ESPERANCE;;;12  RUE DE L' ESPERANCE 75013 PARIS;48.8267473;2.3478909
VEMaps.PinData;ECOLE MATERNELLE 13 RUE LAHIRE;;;13  RUE LAHIRE 75013 PARIS;48.8296691;2.3663221
VEMaps.PinData;ECOLE MATERNELLE 140 RUE LEON-MAURICE NORDMANN;;;140  RUE LEON-MAURICE NORDMANN 75013 PARIS;48.8336809;2.3429566
VEMaps.PinData;ECOLE MATERNELLE 15 RUE DOMREMY;;;15  RUE DE DOMREMY 75013 PARIS;48.8303326;2.3731416
VEMaps.PinData;ECOLE MATERNELLE 157 RUE TOLBIAC;;;157  RUE DE TOLBIAC 75013 PARIS;48.8260506;2.3561565
VEMaps.PinData;ECOLE MATERNELLE 16 RUE WURTZ;;;16  RUE WURTZ 75013 PARIS;48.8268658;2.3446572
VEMaps.PinData;ECOLE MATERNELLE 17 RUE POINTE D'IVRY;;;17  RUE DE LA POINTE D'IVRY 75013 PARIS;48.822446;2.3641327
VEMaps.PinData;ECOLE MATERNELLE 2 RUE PAUL GERVAIS;;;2  RUE PAUL GERVAIS 75013 PARIS;48.831594;2.3476429
VEMaps.PinData;ECOLE MATERNELLE 20 RUE PATAY;;;20  RUE DE PATAY 75013 PARIS;48.8250905;2.3755726
VEMaps.PinData;ECOLE MATERNELLE 28 AV STEPHEN PICHON;;;28  AVENUE STEPHEN PICHON 75013 PARIS;48.8323543;2.3585341
VEMaps.PinData;ECOLE MATERNELLE 29 RUE LONGUES RAIES;;;29  RUE DES LONGUES RAIES 75013 PARIS;48.8212041;2.3503095
VEMaps.PinData;ECOLE MATERNELLE 31 RUE CHATEAU DES RENTIERS;;;31  RUE DU CHATEAU DES RENTIERS 75013 PARIS;48.8246254;2.3699364
VEMaps.PinData;ECOLE MATERNELLE 32 PL JEANNE D'ARC;;;32  PLACE JEANNE D'ARC 75013 PARIS;48.8303915;2.367835
VEMaps.PinData;ECOLE MATERNELLE 4 BIS AV DE CHOISY;;;4B  AVENUE DE CHOISY 75013 PARIS;48.820542;2.364604
VEMaps.PinData;ECOLE MATERNELLE 40 RUE VANDREZANNE;;;40  RUE VANDREZANNE 75013 PARIS;48.8279235;2.3529838
VEMaps.PinData;ECOLE MATERNELLE 46 RUE JENNER;;;46  RUE JENNER 75013 PARIS;48.8359667;2.3609991
VEMaps.PinData;ECOLE MATERNELLE 5 RUE SIMONE WEIL;;;5  RUE SIMONE WEIL 75013 PARIS;48.8235531;2.3642466
VEMaps.PinData;ECOLE MATERNELLE 5 RUE YEO THOMAS;;;5  RUE YEO THOMAS 75013 PARIS;48.8316253;2.3629744
VEMaps.PinData;ECOLE MATERNELLE 53 AV PORTE D'IVRY;;;53  AVENUE DE LA PORTE D'IVRY 75013 PARIS;48.8213865;2.3695648
VEMaps.PinData;ECOLE MATERNELLE 61 RUE JAVELOT;;;61  RUE DU JAVELOT 75013 PARIS;48.8256449;2.3648646
VEMaps.PinData;ECOLE MATERNELLE 70 RUE DUNOIS;;;70  RUE DUNOIS 75013 PARIS;48.833046;2.3663467
VEMaps.PinData;ECOLE MATERNELLE 71 RUE DUNOIS;;;71  RUE DUNOIS 75013 PARIS;48.833887;2.364246
VEMaps.PinData;ECOLE MATERNELLE 8 RUE RICAUT;;;8  RUE RICAUT 75013 PARIS;48.8298148;2.3615545
VEMaps.PinData;ECOLE MATERNELLE 87 RUE BRILLAT-SAVARIN;;;87  RUE BRILLAT-SAVARIN 75013 PARIS;48.8244137;2.3427117
VEMaps.PinData;ECOLE MATERNELLE 9 RUE FRANC-NOHAIN;;;9  RUE FRANC-NOHAIN 75013 PARIS;48.8213707;2.3753434
VEMaps.PinData;ECOLE MATERNELLE 90 BD VINCENT AURIOL;;;90  BOULEVARD VINCENT AURIOL 75013 PARIS;48.8335413;2.363394
VEMaps.PinData;ECOLE ÉLÉMENTAIRE 3 RUE EMILE LEVASSOR;;;3  RUE EMILE LEVASSOR 75013 PARIS;48.8208506;2.3690256
VEMaps.PinData;ECOLE ÉLÉMENTAIRE 30 BD ARAGO;;;30  BOULEVARD ARAGO 75013 PARIS;48.8355314;2.3472212
VEMaps.PinData;ECOLE ÉLÉMENTAIRE 37 RUE CHATEAU DES RENTIERS;;;37  RUE DU CHATEAU DES RENTIERS 75013 PARIS;48.8246015;2.3699838
VEMaps.PinData;ECOLE ÉLÉMENTAIRE 38 RUE VANDREZANNE;;;38  RUE VANDREZANNE 75013 PARIS;48.8277024;2.3532327
VEMaps.PinData;ECOLE ÉLÉMENTAIRE 40 RUE JENNER;;;40  RUE JENNER 75013 PARIS;48.8355367;2.3618635
VEMaps.PinData;ECOLE ÉLÉMENTAIRE 5 RUE DAMESME;;;5  RUE DAMESME 75013 PARIS;48.8249715;2.3554584
VEMaps.PinData;ECOLE ÉLÉMENTAIRE 51 AV PORTE D'IVRY;;;51  AVENUE DE LA PORTE D'IVRY 75013 PARIS;48.8213578;2.3695971
VEMaps.PinData;ECOLE ÉLÉMENTAIRE 64 RUE DUNOIS;;;64  RUE DUNOIS 75013 PARIS;48.8329209;2.3662297
VEMaps.PinData;ECOLE ÉLÉMENTAIRE A 103 AV CHOISY;;;103B  AVENUE DE CHOISY 75013 PARIS;48.8249842;2.3606907
VEMaps.PinData;ECOLE ÉLÉMENTAIRE A 33 PL JEANNE D'ARC;;;33  PLACE JEANNE D'ARC 75013 PARIS;48.8297845;2.3674528
VEMaps.PinData;ECOLE ÉLÉMENTAIRE A 47 AV IVRY;;;47  AVENUE D' IVRY 75013 PARIS;48.8232389;2.3658388
VEMaps.PinData;ECOLE ÉLÉMENTAIRE A 5 RUE PROVIDENCE;;;5  RUE DE LA PROVIDENCE 75013 PARIS;48.8250981;2.3496388
VEMaps.PinData;ECOLE ÉLÉMENTAIRE A 53 RUE BAUDRICOURT;;;53  RUE BAUDRICOURT 75013 PARIS;48.8260135;2.3632785
VEMaps.PinData;ECOLE ÉLÉMENTAIRE A 8 RUE KUSS;;;8  RUE KUSS 75013 PARIS;48.8221808;2.351696
VEMaps.PinData;ECOLE ÉLÉMENTAIRE A 9 RUE FRANC-NOHAIN;;;9  RUE FRANC-NOHAIN 75013 PARIS;48.8213707;2.3753434
VEMaps.PinData;ECOLE ÉLÉMENTAIRE B 30 PL JEANNE D'ARC;;;30  PLACE JEANNE D'ARC 75013 PARIS;48.8303486;2.3684373
VEMaps.PinData;ECOLE ÉLÉMENTAIRE B 46 RUE JENNER;;;46  RUE JENNER 75013 PARIS;48.8359667;2.3609991
VEMaps.PinData;ECOLE ÉLÉMENTAIRE B 47 AV IVRY;;;47  AVENUE D' IVRY 75013 PARIS;48.8232389;2.3658388
VEMaps.PinData;ECOLE ÉLÉMENTAIRE B 55 RUE BAUDRICOURT;;;55  RUE BAUDRICOURT 75013 PARIS;48.8257264;2.3630826
VEMaps.PinData;ECOLE ÉLÉMENTAIRE B 7 RUE PROVIDENCE;;;7  RUE DE LA PROVIDENCE 75013 PARIS;48.825378;2.3487544
VEMaps.PinData;ECOLE ÉLÉMENTAIRE B 9 RUE AUGUSTE PERRET;;;9  RUE AUGUSTE PERRET 75013 PARIS;48.8248069;2.3596496
VEMaps.PinData;ECOLE ÉLÉMENTAIRE 100 RUE DE LA GLACIERE;;;10  RUE SOEUR CATHERINE MARIE 75013 PARIS;48.82986;2.3429823
VEMaps.PinData;ECOLE ÉLÉMENTAIRE 11 RUE PIERRE GOURDAULT;;;11  RUE PIERRE GOURDAULT 75013 PARIS;48.8312889;2.3707539
VEMaps.PinData;ECOLE ÉLÉMENTAIRE 13 RUE FAGON;;;13  RUE FAGON 75013 PARIS;48.8325114;2.3570426
VEMaps.PinData;ECOLE ÉLÉMENTAIRE 13 RUE VULPIAN;;;13  RUE VULPIAN 75013 PARIS;48.8314722;2.3465185
VEMaps.PinData;ECOLE ÉLÉMENTAIRE 140 RUE LEON-MAURICE NORDMANN;;;140  RUE LEON-MAURICE NORDMANN 75013 PARIS;48.8336809;2.3429566
VEMaps.PinData;ECOLE ÉLÉMENTAIRE 16 RUE WURTZ;;;16  RUE WURTZ 75013 PARIS;48.8268658;2.3446572
VEMaps.PinData;ECOLE ÉLÉMENTAIRE 173 RUE CHATEAU DES RENTIERS;;;173  RUE DU CHATEAU DES RENTIERS 75013 PARIS;48.8302868;2.3619845
VEMaps.PinData;ECOLE POLYVALENTE 2 PLACE DES 44 ENFANTS D’IZIEU;;;2  PLACE DES QUARANTE-QUATRE ENFANTS D'IZIEU 75013 PARIS;48.830759;2.359204
VEMaps.PinData;ECOLE POLYVALENTE 21 RUE PRIMO LEVI;;;21  RUE PRIMO LEVI 75013 PARIS;48.830525;2.378579
VEMaps.PinData;ECOLE POLYVALENTE 40 RUE DU CHÂTEAU DES RENTIERS;;;40  RUE DU CHATEAU DES RENTIERS 75013 PARIS;48.8248588;2.3699483
VEMaps.PinData;ECOLE POLYVALENTE 8 RUE GEORGE BALANCHINE;;;8  RUE GEORGE BALANCHINE 75013 PARIS;48.8364364;2.3737579
VEMaps.PinData;ECOLE POLYVALENTE 8 RUE KUSS;;;8  RUE KUSS 75013 PARIS;48.8221808;2.351696
VEMaps.PinData;ECOLE POLYVALENTE MASSENA SUD, LOT M9C ZAC PRG;;;  SECTEUR MASSENA SUD SUR L'ILOT M9C  PARIS;48.856614;2.3522219
VEMaps.PinData;MAIRIE DU 13E ARRONDISSEMENT;;;1  PLACE D' ITALIE 75013 PARIS;48.8320224;2.3556076
VEMaps.PinData;ESPACE DE QUARTIER AVENUE LEON BOLLEE;;;11  AVENUE LEON BOLLEE 75013 PARIS;48.8183756;2.3635895
VEMaps.PinData;MAISON DES ASSOCIATIONS RUE CAILLAUX;;;11  RUE CAILLAUX 75013 PARIS;48.8226783;2.3612652
VEMaps.PinData;MULTI-ACCUEIL 37 RUE VERGNIAUD;;;37  RUE VERGNIAUD 75013 PARIS;48.8272686;2.3456784
VEMaps.PinData;MULTI-ACCUEIL 18, RUE DU DOCTEUR MAGNAN;;;18  RUE DU DOCTEUR MAGNAN 75013 PARIS;48.8274806;2.3622077
VEMaps.PinData;MULTI-ACCUEIL 5, RUE DES FRIGOS - ZAC PRG LOT M1-F1;;;5  RUE DES FRIGOS 75013 PARIS;48.8305166;2.3802394
VEMaps.PinData;STADE BOUTROUX;;;1  AVENUE BOUTROUX 75013 PARIS;48.8225682;2.3774018
VEMaps.PinData;STADE CHARLES MOUREU;;;17  AVENUE EDISON 75013 PARIS;48.8277075;2.3643506
VEMaps.PinData;STADE TOUR A PARACHUTES;;;9  AVENUE DE LA PORTE DE CHOISY 75013 PARIS;48.8185365;2.3658899
VEMaps.PinData;GYMNASE AUGUSTE BLANQUI;;;26  BOULEVARD AUGUSTE BLANQUI 75013 PARIS;48.8301093;2.3508933
VEMaps.PinData;GYMNASE CAILLAUX;;;3  RUE CAILLAUX 75013 PARIS;48.8228094;2.3618901
VEMaps.PinData;GYMNASE CHATEAU DES RENTIERS;;;184  RUE DU CHATEAU DES RENTIERS 75013 PARIS;48.8304552;2.3619955
VEMaps.PinData;GYMNASE DE LA POINTE D'IVRY;;;47  AVENUE D' IVRY 75013 PARIS;48.8232389;2.3658388
VEMaps.PinData;GYMNASE DU 121 RUE DE LA GLACIERE;;;121  RUE DE LA GLACIERE 75013 PARIS;48.826925;2.342032
VEMaps.PinData;GYMNASE DUNOIS;;;70  RUE DUNOIS 75013 PARIS;48.833046;2.3663467
VEMaps.PinData;GYMNASE JEAN PREVOST;;;88  RUE DE LA GLACIERE 75013 PARIS;48.8300534;2.3438106
VEMaps.PinData;GYMNASE KELLERMANN;;;110  BOULEVARD KELLERMANN 75013 PARIS;48.8194968;2.3446342
VEMaps.PinData;GYMNASE MARCEL CERDAN + ESPACE EUGENE OUDINE;;;5b  RUE EUGENE OUDINE 75013 PARIS;48.825869;2.3759222
VEMaps.PinData;GYMNASE STADIUM 13;;;66  AVENUE D' IVRY 75013 PARIS;48.8242171;2.3641925
VEMaps.PinData;CENTRE D'ANIMATION BAUDRICOURT;;;6  RUE SIMONE WEIL 75013 PARIS;48.8235098;2.3639301
VEMaps.PinData;CENTRE D'ANIMATION CHARLES RICHET;;;12  RUE DU DOCTEUR CHARLES RICHET 75013 PARIS;48.8319242;2.364011
VEMaps.PinData;CENTRE D'ANIMATION DAVIEL;;;24  RUE DAVIEL 75013 PARIS;48.8281766;2.3447246
VEMaps.PinData;CENTRE D'ANIMATION DUNOIS;;;61  RUE DUNOIS 75013 PARIS;48.8331026;2.3663349
VEMaps.PinData;CENTRE D'ANIMATION POTERNE DES PEUPLIERS;;;1  RUE GOUTHIERE 75013 PARIS;48.8205335;2.3510481
VEMaps.PinData;CENTRE D'ANIMATION OUDINE;;;5  RUE EUGENE OUDINE 75013 PARIS;48.825869;2.3759222
VEMaps.PinData;CENTRE D'ANIMATION MASSENA;;;12  RUE RENE GOSCINNY 75013 PARIS;48.8307047;2.380085
VEMaps.PinData;ANTENNE JEUNES SUD 13;;;3  AVENUE JOSEPH BEDIER 75013 PARIS;48.8206942;2.3735996
VEMaps.PinData;ANTENNE JEUNES FONTAINE A MULARD;;;13  RUE DE LA FONTAINE A MULARD 75013 PARIS;48.8233196;2.349429
VEMaps.PinData;ANTENNE JEUNES OLYMPIADES;;;32  RUE DU JAVELOT 75013 PARIS;48.824684;2.366078
VEMaps.PinData;BIBLIOTHEQUE MUNICIPALE GEORGES BRASSENS;;;38  RUE GASSENDI 75014 PARIS;48.8335647;2.3257902
VEMaps.PinData;BIBLIOTHEQUE-DISCOTHEQUE MUNICIPALE PLAISANCE;;;5  RUE DE RIDDER 75014 PARIS;48.8312301;2.3117726
VEMaps.PinData;BIBLIOTHEQUE-DISCOTHEQUE MUNICIPALE VANDAMME;;;80  AVENUE DU MAINE 75014 PARIS;48.8381844;2.3216347
VEMaps.PinData;CONSERVATOIRE MUNICIPAL DARIUS MILHAUD;;;26  RUE MOUTON-DUVERNET 75014 PARIS;48.8324434;2.3258768
VEMaps.PinData;ECOLE MATERNELLE 10 RUE SEVERO;;;10  RUE SEVERO 75014 PARIS;48.8324184;2.3237104
VEMaps.PinData;ECOLE MATERNELLE 11 RUE JEAN DOLENT;;;11  RUE JEAN DOLENT 75014 PARIS;48.8332438;2.3404115
VEMaps.PinData;ECOLE MATERNELLE 13 RUE OUEST;;;13  RUE DE L' OUEST 75014 PARIS;48.8372253;2.3218234
VEMaps.PinData;ECOLE MATERNELLE 15 RUE ANTOINE CHANTIN;;;15  RUE ANTOINE CHANTIN 75014 PARIS;48.827316;2.3219238
VEMaps.PinData;ECOLE MATERNELLE 190 RUE ALESIA;;;190  RUE D' ALESIA 75014 PARIS;48.8325173;2.3121212
VEMaps.PinData;ECOLE MATERNELLE 2 RUE MAURICE ROUVIER;;;2  RUE MAURICE ROUVIER 75014 PARIS;48.8305714;2.3106297
VEMaps.PinData;ECOLE MATERNELLE 22 RUE ANTOINE CHANTIN;;;22  RUE ANTOINE CHANTIN 75014 PARIS;48.8273354;2.3223095
VEMaps.PinData;ECOLE MATERNELLE 23 RUE BOULARD;;;23  RUE BOULARD 75014 PARIS;48.8337448;2.3288462
VEMaps.PinData;ECOLE MATERNELLE 23 RUE JACQUIER;;;23  RUE JACQUIER 75014 PARIS;48.8300322;2.3169664
VEMaps.PinData;ECOLE MATERNELLE 24 RUE DELAMBRE;;;24  RUE DELAMBRE 75014 PARIS;48.8415709;2.3269971
VEMaps.PinData;ECOLE MATERNELLE 3 BIS RUE ALESIA;;;3B  RUE D' ALESIA 75014 PARIS;48.8266585;2.3397051
VEMaps.PinData;ECOLE MATERNELLE 34 RUE SARRETTE;;;34  RUE SARRETTE 75014 PARIS;48.8260241;2.3286503
VEMaps.PinData;ECOLE MATERNELLE 48 RUE HIPPOLYTE MAINDRON;;;48  RUE HIPPOLYTE MAINDRON 75014 PARIS;48.8305263;2.3206579
VEMaps.PinData;ECOLE MATERNELLE 55 RUE MAURICE RIPOCHE;;;55  RUE MAURICE RIPOCHE 75014 PARIS;48.8333077;2.3230066
VEMaps.PinData;ECOLE MATERNELLE 55 RUE SARRETTE;;;55  RUE SARRETTE 75014 PARIS;48.8251358;2.3268002
VEMaps.PinData;ECOLE MATERNELLE 7 AV MAURICE D'OCAGNE;;;7  AVENUE MAURICE D'OCAGNE 75014 PARIS;48.8248806;2.3120384
VEMaps.PinData;ECOLE MATERNELLE 77 RUE TOMBE ISSOIRE;;;77  RUE DE LA TOMBE ISSOIRE 75014 PARIS;48.8276339;2.3324518
VEMaps.PinData;ECOLE MATERNELLE 7 SQ ALAIN-FOURNIER;;;7  RUE DE LA BRIQUETERIE 75014 PARIS;48.8274617;2.3068754
VEMaps.PinData;ECOLE ÉLÉMENTAIRE 3 RUE ALESIA;;;3  RUE D' ALESIA 75014 PARIS;48.8266585;2.3397051
VEMaps.PinData;ECOLE ÉLÉMENTAIRE 46 RUE BOULARD;;;46  RUE BOULARD 75014 PARIS;48.832886;2.3281076
VEMaps.PinData;ECOLE ÉLÉMENTAIRE 48 RUE HIPPOLYTE MAINDRON;;;48  RUE HIPPOLYTE MAINDRON 75014 PARIS;48.8305263;2.3206579
VEMaps.PinData;ECOLE ÉLÉMENTAIRE 5 RUE PRISSE D'AVENNES;;;5  RUE PRISSE D'AVENNES 75014 PARIS;48.8251294;2.3282878
VEMaps.PinData;ECOLE ÉLÉMENTAIRE 7 AV MAURICE D'OCAGNE;;;7  AVENUE MAURICE D'OCAGNE 75014 PARIS;48.8248806;2.3120384
VEMaps.PinData;ECOLE ÉLÉMENTAIRE 7 RUE ASSELINE;;;7  RUE ASSELINE 75014 PARIS;48.8351232;2.3227137
VEMaps.PinData;ECOLE ÉLÉMENTAIRE 8 RUE MAURICE ROUVIER;;;8  RUE MAURICE ROUVIER 75014 PARIS;48.831131;2.3097269
VEMaps.PinData;ECOLE ÉLÉMENTAIRE 87 BD ARAGO;;;87  BOULEVARD ARAGO 75014 PARIS;48.834543;2.3358709
VEMaps.PinData;ECOLE ÉLÉMENTAIRE 5 SQ ALAIN-FOURNIER;;;5  SQUARE ALAIN FOURNIER 75014 PARIS;48.8280984;2.3071809
VEMaps.PinData;ECOLE ÉLÉMENTAIRE 12 RUE ALESIA;;;12  RUE D' ALESIA 75014 PARIS;48.8277954;2.3334781
VEMaps.PinData;ECOLE ÉLÉMENTAIRE 12 RUE SEVERO;;;12  RUE SEVERO 75014 PARIS;48.8324806;2.3235229
VEMaps.PinData;ECOLE ÉLÉMENTAIRE 18 RUE JEAN ZAY;;;18  RUE JEAN ZAY 75014 PARIS;48.8375299;2.3208731
VEMaps.PinData;ECOLE ÉLÉMENTAIRE 188 RUE ALESIA;;;188  RUE D' ALESIA 75014 PARIS;48.8324467;2.3123078
VEMaps.PinData;ECOLE ÉLÉMENTAIRE 20 RUE ANTOINE CHANTIN;;;20  RUE ANTOINE CHANTIN 75014 PARIS;48.8272947;2.3224127
VEMaps.PinData;ECOLE ÉLÉMENTAIRE 24 RUE DELAMBRE;;;24  RUE DELAMBRE 75014 PARIS;48.8415709;2.3269971
VEMaps.PinData;ECOLE ÉLÉMENTAIRE 28 RUE PIERRE LAROUSSE;;;28  RUE PIERRE LAROUSSE 75014 PARIS;48.829155;2.3141159
VEMaps.PinData;ECOLE POLYVALENTE 13 AV DE LA SIBELLE;;;13  AVENUE DE LA SIBELLE 75014 PARIS;48.8260258;2.3384828
VEMaps.PinData;ECOLE POLYVALENTE 69 RUE OUEST;;;69  RUE DE L' OUEST 75014 PARIS;48.8357006;2.3186671
VEMaps.PinData;MAIRIE DU 14E ARRONDISSEMENT;;;2B  PLACE FERDINAND BRUNOT 75014 PARIS;48.8326402;2.3272742
VEMaps.PinData;MAIRIE ANNEXE DU 14E ARRONDISSEMENT;;;26  RUE MOUTON-DUVERNET 75014 PARIS;48.8324434;2.3258768
VEMaps.PinData;MAISON DES ASSOCIATIONS RUE DEPARCIEUX;;;22  RUE DEPARCIEUX 75014 PARIS;48.8356253;2.3258871
VEMaps.PinData;LOCAUX ASSOCIATIFS 12 RUE DU MOULIN DES LAPINS;;;12  RUE DU MOULIN DES LAPINS 75014 PARIS;48.8341858;2.3208703
VEMaps.PinData;LOCAUX ASSOCIATIFS 35 RUE SAINT-GOTHARD;;;35  RUE DU SAINT-GOTHARD 75014 PARIS;48.8280034;2.3355569
VEMaps.PinData;LOCAUX ASSOCIATIFS 40 RUE BOULARD;;;40  RUE BOULARD 75014 PARIS;48.8331248;2.3280889
VEMaps.PinData;GYMNASE ALICE MILLIAT;;;11T  RUE D' ALESIA 75014 PARIS;48.8272173;2.3358366
VEMaps.PinData;GYMNASE AUGUSTE RENOIR;;;1  SQUARE AUGUSTE RENOIR 75014 PARIS;48.8281681;2.3079452
VEMaps.PinData;GYMNASE COMMANDANT MOUCHOTTE;;;33  RUE DU COMMANDANT RENE MOUCHOTTE 75014 PARIS;48.837762;2.319462
VEMaps.PinData;GYMNASE HUYGHENS;;;10  RUE HUYGHENS 75014 PARIS;48.8408383;2.3284963
VEMaps.PinData;GYMNASE DU CANGE;;;11  RUE DU CANGE 75014 PARIS;48.8340757;2.3146261
VEMaps.PinData;CENTRE D'ANIMATION GAREF OCEANO-GRAPHIQUE;;;26  ALLEE DU CHEF D'ESCADRON DE GUILLEBON 75014 PARIS;48.8391669;2.3182074
VEMaps.PinData;CENTRE D'ANIMATION MARC SANGNIER;;;20  AVENUE MARC SANGNIER 75014 PARIS;48.8262507;2.3065104
VEMaps.PinData;CENTRE D'ANIMATION VERCINGETORIX;;;181  RUE VERCINGETORIX 75014 PARIS;48.8315501;2.3095133
VEMaps.PinData;ANTENNE JEUNES DIDOT;;;40  RUE DIDOT 75014 PARIS;48.8315186;2.319843
VEMaps.PinData;BIBLIOTHEQUE MUNICIPALE GUTENBERG;;;8  RUE DE LA MONTAGNE D'AULAS 75015 PARIS;48.8402475;2.2787776
VEMaps.PinData;BIBLIOTHEQUE-DISCOTHEQUE MUNICIPALE VAUGIRARD;;;154  RUE LECOURBE 75015 PARIS;48.8417079;2.2994759
VEMaps.PinData;BIBLIOTHEQUE-DISCOTHEQUE-VIDEOTHEQUE MUNICIPALE BEAUGRENELLE;;;36  RUE EMERIAU 75015 PARIS;48.8499924;2.2864868
VEMaps.PinData;BIBLIOTHEQUE-MEDIATHEQUE MARGUERITE YOURCENAR;;;41  RUE D' ALLERAY 75015 PARIS;48.8367847;2.3032947
VEMaps.PinData;CONSERVATOIRE MUNICIPAL FRÉDÉRIC CHOPIN;;;43  RUE BARGUE 75015 PARIS;48.8379053;2.3089985
VEMaps.PinData;ANNEXE MATERNELLE DU 56 AV FELIX FAURE;;;78  RUE DE L' EGLISE 75015 PARIS;48.8431667;2.290652
VEMaps.PinData;ECOLE MATERNELLE 10 RUE FRANCOIS COPPEE;;;10  RUE FRANCOIS COPPEE 75015 PARIS;48.8400111;2.2876054
VEMaps.PinData;ECOLE MATERNELLE 102 RUE ALLERAY;;;102  RUE D' ALLERAY 75015 PARIS;48.8366938;2.3033615
VEMaps.PinData;ECOLE MATERNELLE 149 RUE VAUGIRARD;;;149  RUE DE VAUGIRARD 75015 PARIS;48.8439507;2.3161546
VEMaps.PinData;ECOLE MATERNELLE 15 RUE ARISTIDE MAILLOL;;;15  RUE ARISTIDE MAILLOL 75015 PARIS;48.8377321;2.3120711
VEMaps.PinData;ECOLE MATERNELLE 16 RUE EMERIAU;;;16  RUE EMERIAU 75015 PARIS;48.8515009;2.2881729
VEMaps.PinData;ECOLE MATERNELLE 17 RUE VOLONTAIRES;;;17  RUE DES VOLONTAIRES 75015 PARIS;48.8425276;2.3072162
VEMaps.PinData;ECOLE MATERNELLE 18 RUE FEDERATION;;;18  RUE DE LA FEDERATION 75015 PARIS;48.854616;2.2911172
VEMaps.PinData;ECOLE MATERNELLE 2 RUE THEODORE DECK;;;2  RUE THEODORE DECK 75015 PARIS;48.8376016;2.2906241
VEMaps.PinData;ECOLE MATERNELLE 22 RUE SEXTIUS MICHEL;;;22  RUE SEXTIUS MICHEL 75015 PARIS;48.8504089;2.2885638
VEMaps.PinData;ECOLE MATERNELLE 3 PL CARDINAL AMETTE;;;3  PLACE DU CARDINAL AMETTE 75015 PARIS;48.8509706;2.297077
VEMaps.PinData;ECOLE MATERNELLE 3 RUE JONGKIND;;;3  RUE JONGKIND 75015 PARIS;48.8390462;2.280131
VEMaps.PinData;ECOLE MATERNELLE 34 RUE OLIVIER DE SERRES;;;34  RUE OLIVIER DE SERRES 75015 PARIS;48.8355589;2.2966774
VEMaps.PinData;ECOLE MATERNELLE 35 AV EMILE ZOLA;;;35  AVENUE EMILE ZOLA 75015 PARIS;48.8463515;2.2819113
VEMaps.PinData;ECOLE MATERNELLE 38 RUE VIOLET;;;38  RUE VIOLET 75015 PARIS;48.8474324;2.2926816
VEMaps.PinData;ECOLE MATERNELLE 40 RUE MORILLONS;;;40  RUE DES MORILLONS 75015 PARIS;48.8324511;2.3016473
VEMaps.PinData;ECOLE MATERNELLE 42 RUE ALLERAY;;;42  RUE D' ALLERAY 75015 PARIS;48.8367252;2.3033857
VEMaps.PinData;ECOLE MATERNELLE 5 AV PORTE BRANCION;;;5  AVENUE DE LA PORTE BRANCION 75015 PARIS;48.8274273;2.3011319
VEMaps.PinData;ECOLE MATERNELLE 5 RUE LACORDAIRE;;;5  RUE LACORDAIRE 75015 PARIS;48.8440949;2.284373
VEMaps.PinData;ECOLE MATERNELLE 56 AV FELIX FAURE;;;56  AVENUE FELIX FAURE 75015 PARIS;48.8406256;2.286661
VEMaps.PinData;ECOLE MATERNELLE 6 RUE GERBERT;;;6  RUE GERBERT 75015 PARIS;48.8397625;2.2978252
VEMaps.PinData;ECOLE MATERNELLE 66 RUE PROCESSION;;;66  RUE DE LA PROCESSION 75015 PARIS;48.836578;2.3094216
VEMaps.PinData;ECOLE MATERNELLE 72 RUE GUTENBERG;;;72  RUE GUTENBERG 75015 PARIS;48.8412086;2.2785898
VEMaps.PinData;ECOLE MATERNELLE 9 RUE VARET;;;9  RUE VARET 75015 PARIS;48.8401021;2.2811514
VEMaps.PinData;ECOLE MATERNELLE 95 RUE BALARD;;;95  RUE BALARD 75015 PARIS;48.8383011;2.278379
VEMaps.PinData;ECOLE MATERNELLE 99 RUE OLIVIER DE SERRES;;;99  RUE OLIVIER DE SERRES 75015 PARIS;48.8317787;2.2932525
VEMaps.PinData;ECOLE MATERNELLE A 33 RUE AMIRAL ROUSSIN;;;33  RUE DE L' AMIRAL ROUSSIN 75015 PARIS;48.844611;2.2995341
VEMaps.PinData;ECOLE MATERNELLE A 33 RUE MIOLLIS;;;33  RUE MIOLLIS 75015 PARIS;48.8454217;2.3023637
VEMaps.PinData;ECOLE MATERNELLE B 13 RUE CEPRE;;;13  RUE CEPRE 75015 PARIS;48.8470967;2.3036948
VEMaps.PinData;ECOLE MATERNELLE B 83 RUE MADEMOISELLE;;;83  RUE MADEMOISELLE 75015 PARIS;48.8432351;2.3005178
VEMaps.PinData;ECOLE ÉLÉMENTAIRE 3 RUE CORBON;;;3  RUE CORBON 75015 PARIS;48.8364612;2.3032543
VEMaps.PinData;ECOLE ÉLÉMENTAIRE 33 BIS RUE MIOLLIS;;;33B  RUE MIOLLIS 75015 PARIS;48.8454217;2.3023637
VEMaps.PinData;ECOLE ÉLÉMENTAIRE 5 AV PORTE BRANCION;;;5  AVENUE DE LA PORTE BRANCION 75015 PARIS;48.8274273;2.3011319
VEMaps.PinData;ECOLE ÉLÉMENTAIRE 50 RUE GUTENBERG;;;50  RUE GUTENBERG 75015 PARIS;48.8426603;2.2797642
VEMaps.PinData;ECOLE ÉLÉMENTAIRE 56 AV FELIX FAURE;;;56  AVENUE FELIX FAURE 75015 PARIS;48.8406256;2.286661
VEMaps.PinData;ECOLE ÉLÉMENTAIRE 7 RUE LACORDAIRE;;;7  RUE LACORDAIRE 75015 PARIS;48.8438769;2.2842302
VEMaps.PinData;ECOLE ÉLÉMENTAIRE 99 RUE OLIVIER DE SERRES;;;99  RUE OLIVIER DE SERRES 75015 PARIS;48.8317787;2.2932525
VEMaps.PinData;ECOLE ÉLÉMENTAIRE A 10 RUE SAINT-LAMBERT;;;10  RUE SAINT-LAMBERT 75015 PARIS;48.8381776;2.2909134
VEMaps.PinData;ECOLE ÉLÉMENTAIRE A 17 RUE VIGEE-LEBRUN;;;17  RUE VIGEE-LEBRUN 75015 PARIS;48.8388259;2.3110873
VEMaps.PinData;ECOLE ÉLÉMENTAIRE A 21 RUE DUPLEIX;;;21  RUE DUPLEIX 75015 PARIS;48.8515143;2.2970741
VEMaps.PinData;ECOLE ÉLÉMENTAIRE A 35 RUE AMIRAL ROUSSIN;;;35  RUE DE L' AMIRAL ROUSSIN 75015 PARIS;48.8443581;2.2996062
VEMaps.PinData;ECOLE ÉLÉMENTAIRE B 11 RUE VIGEE-LEBRUN;;;11  RUE VIGEE-LEBRUN 75015 PARIS;48.8389684;2.3105877
VEMaps.PinData;ECOLE ÉLÉMENTAIRE B 12 RUE SAINT-LAMBERT;;;12  RUE SAINT-LAMBERT 75015 PARIS;48.8380289;2.2910998
VEMaps.PinData;ECOLE ÉLÉMENTAIRE B 3 PL CARDINAL AMETTE;;;3  PLACE DU CARDINAL AMETTE 75015 PARIS;48.8509706;2.297077
VEMaps.PinData;ECOLE ÉLÉMENTAIRE B 81 RUE MADEMOISELLE;;;81  RUE MADEMOISELLE 75015 PARIS;48.8432711;2.3003752
VEMaps.PinData;ECOLE ÉLÉMENTAIRE (ANNEXE) 20 RUE DE LA SAÏDA;;;20  RUE DE LA SAIDA 75015 PARIS;48.8319619;2.2955779
VEMaps.PinData;ECOLE ÉLÉMENTAIRE 10 RUE EMERIAU;;;10  RUE EMERIAU 75015 PARIS;48.8516853;2.2883799
VEMaps.PinData;ECOLE ÉLÉMENTAIRE 12 RUE FONDARY;;;12  RUE FONDARY 75015 PARIS;48.8483643;2.2923537
VEMaps.PinData;ECOLE ÉLÉMENTAIRE 14 RUE FRANCOIS COPPEE;;;14  RUE FRANCOIS COPPEE 75015 PARIS;48.8397044;2.2877901
VEMaps.PinData;ECOLE ÉLÉMENTAIRE 146 AV FELIX FAURE;;;146  AVENUE FELIX FAURE 75015 PARIS;48.8373538;2.2793175
VEMaps.PinData;ECOLE ÉLÉMENTAIRE 15 RUE CHERBOURG;;;15  RUE DE CHERBOURG 75015 PARIS;48.8309163;2.3039823
VEMaps.PinData;ECOLE ÉLÉMENTAIRE 19 RUE BLOMET;;;19  RUE BLOMET 75015 PARIS;48.843229;2.3074156
VEMaps.PinData;ECOLE ÉLÉMENTAIRE 197 RUE SAINT-CHARLES;;;197  RUE SAINT-CHARLES 75015 PARIS;48.8400903;2.279832
VEMaps.PinData;ECOLE ÉLÉMENTAIRE 20 RUE FALGUIERE;;;20  RUE FALGUIERE 75015 PARIS;48.8431852;2.3166533
VEMaps.PinData;ECOLE ÉLÉMENTAIRE 25 RUE ROUELLE;;;25  RUE ROUELLE 75015 PARIS;48.8504376;2.2873633
VEMaps.PinData;ECOLE ÉLÉMENTAIRE 27 RUE OLIVIER DE SERRES;;;27  RUE OLIVIER DE SERRES 75015 PARIS;48.8356894;2.2969077
VEMaps.PinData;ECOLE POLYVALENTE 3 BD FRERES VOISIN;;;3  BOULEVARD DES FRERES VOISIN 75015 PARIS;48.8279336;2.2711246
VEMaps.PinData;ECOLE POLYVALENTE 78 RUE CONVENTION;;;78  RUE DE LA CONVENTION 75015 PARIS;48.8421488;2.2855594
VEMaps.PinData;MAIRIE DU 15E ARRONDISSEMENT;;;31  RUE PECLET 75015 PARIS;48.8413986;2.3003453
VEMaps.PinData;MAIRIE D'ARRONDISSEMENT 15E (ANNEXE) LECOURBE;;;154  RUE LECOURBE 75015 PARIS;48.8417079;2.2994759
VEMaps.PinData;MAIRIE D'ARRONDISSEMENT (ANNEXE) 15E VIOLET;;;69  RUE VIOLET 75015 PARIS;48.845619;2.2914486
VEMaps.PinData;MAISON DES ASSOCIATIONS RUE DE LA SAIDA;;;22  RUE DE LA SAIDA 75015 PARIS;48.8318107;2.2957874
VEMaps.PinData;CRÈCHE FAMILIALE (ANTENNE) 9 RUE PERICHAUX;;;9  RUE DES PERICHAUX 75015 PARIS;48.8298625;2.2990099
VEMaps.PinData;MULTI-ACCUEIL 139-141 RUE CASTAGNARY;;;139  RUE CASTAGNARY  PARIS;48.8301072;2.3024279
VEMaps.PinData;MULTI-ACCUEIL 152 BOULEVARD DE GRENELLE;;;152  BOULEVARD DE GRENELLE  PARIS;48.8483643;2.2997407
VEMaps.PinData;STADE DU CS DE LA PLAINE;;;13  RUE DU GENERAL GUILLAUMAT 75015 PARIS;48.8279165;2.2929615
VEMaps.PinData;GYMNASE CEVENNES;;;11  RUE DE LA MONTAGNE D'AULAS 75015 PARIS;48.8403142;2.2791726
VEMaps.PinData;GYMNASE DE LA CROIX-NIVERT;;;107  RUE DE LA CROIX NIVERT 75015 PARIS;48.8425411;2.294422
VEMaps.PinData;GYMNASE DE L'INGENIEUR ROBERT KELLER;;;16  RUE DE L' INGENIEUR ROBERT KELLER 75015 PARIS;48.8479833;2.2833393
VEMaps.PinData;GYMNASE DUPLEIX;;;28  RUE EDGAR FAURE 75015 PARIS;48.8518205;2.2956047
VEMaps.PinData;GYMNASE FALGUIERE;;;144  RUE FALGUIERE 75015 PARIS;48.8366497;2.3100868
VEMaps.PinData;GYMNASE OLIVIER DE SERRES;;;99  RUE OLIVIER DE SERRES 75015 PARIS;48.8317787;2.2932525
VEMaps.PinData;GYMNASE RAYMOND BURGARD;;;251  RUE DE VAUGIRARD 75015 PARIS;48.8403892;2.3042507
VEMaps.PinData;GYMNASE SAINT-LAMBERT;;;8  RUE SAINT-LAMBERT 75015 PARIS;48.8383263;2.2907269
VEMaps.PinData;GYMNASE DU CS LA PLAINE;;;13  RUE DU GENERAL GUILLAUMAT 75015 PARIS;48.8279165;2.2929615
VEMaps.PinData;CENTRE D'ANIMATION BRANCION;;;18  AVENUE DE LA PORTE BRANCION 75015 PARIS;48.826677;2.3003889
VEMaps.PinData;CENTRE D'ANIMATION DES FRERES VOISIN;;;36  RUE DU COLONEL PIERRE AVIA 75015 PARIS;48.828998;2.2737458
VEMaps.PinData;CENTRE D'ANIMATION ESPACE CEVENNES;;;9  RUE DE LA MONTAGNE D'AULAS 75015 PARIS;48.840423;2.278901
VEMaps.PinData;CENTRE D'ANIMATION SOHANE BENZIANE;;;20  RUE GEORGES DUHAMEL 75015 PARIS;48.8356427;2.3118676
VEMaps.PinData;ESPACE PARIS PLAINE;;;13  RUE DU GENERAL GUILLAUMAT 75015 PARIS;48.8279165;2.2929615
VEMaps.PinData;ANTENNE JEUNES QUATRE FRERES PEIGNOT;;;24  RUE DES QUATRE FRERES PEIGNOT 75015 PARIS;48.8454982;2.2824178
VEMaps.PinData;BIBLIOTHEQUE MUNICIPALE MUSSET;;;20  RUE DE MUSSET 75016 PARIS;48.8420502;2.2634733
VEMaps.PinData;BIBLIOTHEQUE GERMAINE TILLION;;;6  RUE DU COMMANDANT SCHLOESING 75016 PARIS;48.8618599;2.284496
VEMaps.PinData;CONSERVATOIRE MUNICIPAL FRANCIS POULENC;;;11  RUE JEAN DE LA FONTAINE 75016 PARIS;48.8521963;2.2746361
VEMaps.PinData;ECOLE MATERNELLE 130 RUE LONGCHAMP;;;130  RUE DE LONGCHAMP 75016 PARIS;48.8755732;2.2497227
VEMaps.PinData;ECOLE MATERNELLE 141 AV VERSAILLES;;;141  AVENUE DE VERSAILLES 75016 PARIS;48.8421743;2.2678638
VEMaps.PinData;ECOLE MATERNELLE 15 BIS RUE SAINT-DIDIER;;;15B  RUE SAINT-DIDIER 75016 PARIS;48.8661154;2.2877684
VEMaps.PinData;ECOLE MATERNELLE 162 BD MURAT;;;162  BOULEVARD MURAT 75016 PARIS;48.8388794;2.2653837
VEMaps.PinData;ECOLE MATERNELLE 18 RUE GROS;;;18  RUE GROS 75016 PARIS;48.8512771;2.275946
VEMaps.PinData;ECOLE MATERNELLE 18 RUE SERGE PROKOFIEV;;;18  RUE SERGE PROKOFIEV 75016 PARIS;48.85425;2.2679392
VEMaps.PinData;ECOLE MATERNELLE 20 RUE PAUL VALERY;;;20  RUE PAUL VALERY 75016 PARIS;48.8705468;2.2896703
VEMaps.PinData;ECOLE MATERNELLE 25 RUE PASSY;;;25  RUE DE PASSY 75016 PARIS;48.8580281;2.2823306
VEMaps.PinData;ECOLE MATERNELLE 27 AV PARC DES PRINCES;;;27  AVENUE DU PARC DES PRINCES 75016 PARIS;48.8400858;2.2547465
VEMaps.PinData;ECOLE MATERNELLE 38 RUE PERCHAMPS;;;38  RUE DES PERCHAMPS 75016 PARIS;48.8492563;2.2681662
VEMaps.PinData;ECOLE MATERNELLE 5 RUE GUSTAVE ZEDE;;;5  RUE GUSTAVE ZEDE 75016 PARIS;48.8560339;2.2730212
VEMaps.PinData;ECOLE MATERNELLE 56 RUE BOISSIERE;;;56  RUE BOISSIERE 75016 PARIS;48.8681034;2.2879413
VEMaps.PinData;ECOLE MATERNELLE 56-58 RUE ERLANGER;;;58  RUE ERLANGER 75016 PARIS;48.8440072;2.2595307
VEMaps.PinData;ECOLE MATERNELLE 64 RUE CHARDON-LAGACHE;;;64  RUE CHARDON-LAGACHE 75016 PARIS;48.8423754;2.2642506
VEMaps.PinData;ECOLE MATERNELLE 9 RUE BOULAINVILLIERS;;;9  RUE DE BOULAINVILLIERS 75016 PARIS;48.852181;2.2768272
VEMaps.PinData;ECOLE ÉLÉMENTAIRE 41 BIS RUE LA FONTAINE;;;41B  RUE JEAN DE LA FONTAINE 75016 PARIS;48.8503249;2.2703598
VEMaps.PinData;ECOLE ÉLÉMENTAIRE 51 RUE MICHEL-ANGE;;;51  RUE MICHEL-ANGE 75016 PARIS;48.8441117;2.2609916
VEMaps.PinData;ECOLE ÉLÉMENTAIRE 54 RUE BOISSIERE;;;54  RUE BOISSIERE 75016 PARIS;48.8680379;2.2880307
VEMaps.PinData;ECOLE ÉLÉMENTAIRE 63 RUE BOILEAU;;;63  RUE BOILEAU 75016 PARIS;48.8427151;2.2629694
VEMaps.PinData;ECOLE ÉLÉMENTAIRE 8 RUE CHERNOVIZ;;;8  RUE CHERNOVIZ 75016 PARIS;48.8573153;2.2820687
VEMaps.PinData;ECOLE ÉLÉMENTAIRE 10 RUE BAUCHES;;;10  RUE DES BAUCHES 75016 PARIS;48.8559794;2.2740391
VEMaps.PinData;ECOLE ÉLÉMENTAIRE 130 RUE LONGCHAMP;;;130  RUE DE LONGCHAMP 75016 PARIS;48.8755732;2.2497227
VEMaps.PinData;ECOLE ÉLÉMENTAIRE 15 BIS RUE SAINT-DIDIER;;;15B  RUE SAINT-DIDIER 75016 PARIS;48.8661154;2.2877684
VEMaps.PinData;ECOLE ÉLÉMENTAIRE 15 RUE BAUCHES;;;15  RUE DES BAUCHES 75016 PARIS;48.8560332;2.2735101
VEMaps.PinData;ECOLE ÉLÉMENTAIRE 162 BD MURAT;;;162  BOULEVARD MURAT 75016 PARIS;48.8388794;2.2653837
VEMaps.PinData;ECOLE ÉLÉMENTAIRE 17 RUE BOILEAU;;;17  RUE BOILEAU 75016 PARIS;48.8463923;2.2652888
VEMaps.PinData;ECOLE ÉLÉMENTAIRE 18 RUE PAUL VALERY;;;18  RUE PAUL VALERY 75016 PARIS;48.8703405;2.2899176
VEMaps.PinData;ECOLE ÉLÉMENTAIRE 20 RUE MUSSET;;;20  RUE DE MUSSET 75016 PARIS;48.8420502;2.2634733
VEMaps.PinData;ECOLE ÉLÉMENTAIRE 21 RUE HAMELIN;;;21  RUE AMIRAL HAMELIN 75016 PARIS;48.8673121;2.2920809
VEMaps.PinData;ECOLE ÉLÉMENTAIRE 23 AV PARC DES PRINCES;;;23  AVENUE DU PARC DES PRINCES 75016 PARIS;48.8408861;2.2546095
VEMaps.PinData;ECOLE POLYVALENTE 3 IMP BELLES-FEUILLES;;;3  IMPASSE DES BELLES FEUILLES 75016 PARIS;48.8688029;2.2807044
VEMaps.PinData;ECOLE POLYVALENTE 4 RUE DECAMPS;;;4  RUE DECAMPS 75016 PARIS;48.865271;2.2826124
VEMaps.PinData;MAIRIE DU 16E ARRONDISSEMENT;;;71  AVENUE HENRI MARTIN 75016 PARIS;48.8639519;2.2773394
VEMaps.PinData;MAISON DES ASSOCIATIONS AVENUE RENÉ BOYLESVE;;;14  AVENUE RENE BOYLESVE 75016 PARIS;48.8565747;2.2841992
VEMaps.PinData;STADE GEORGES HEBERT;;;2  BOULEVARD MURAT 75016 PARIS;48.847445;2.2579085
VEMaps.PinData;GYMNASE DES BAUCHES;;;14  RUE DES BAUCHES 75016 PARIS;48.8560236;2.2739196
VEMaps.PinData;CENTRE D'ANIMATION DU POINT DU JOUR;;;1  RUE DU GENERAL MALLETERRE 75016 PARIS;48.8374268;2.2634237
VEMaps.PinData;CENTRE D'ANIMATION DU POINT DU JOUR ANNEXE MESNIL;;;25  RUE MESNIL 75016 PARIS;48.8672786;2.2839088
VEMaps.PinData;BIBLIOTHEQUE COLETTE VIVIER;;;6  RUE FOURNEYRON 75017 PARIS;48.8899169;2.3193221
VEMaps.PinData;BIBLIOTHEQUE-DISCOTHEQUE MUNICIPALE DES BATIGNOLLES;;;18  RUE DES BATIGNOLLES 75017 PARIS;48.8843886;2.3218539
VEMaps.PinData;BIBLIOTHEQUE-DISCOTHEQUE-VIDEOTHEQUE MUNICIPALE EDMOND ROSTAND;;;11  RUE NICOLAS CHUQUET 75017 PARIS;48.8885016;2.3032529
VEMaps.PinData;CONSERVATOIRE MUNICIPAL CLAUDE DEBUSSY;;;29  AVENUE DE VILLIERS 75017 PARIS;48.8820998;2.3122096
VEMaps.PinData;CONSERVATOIRE MUNICIPAL SITE DE LA JONQUIERE;;;88  RUE DE LA JONQUIERE 75017 PARIS;48.894733;2.319155
VEMaps.PinData;ECOLE MATERNELLE 120 RUE SAUSSURE;;;120  RUE DE SAUSSURE 75017 PARIS;48.888253;2.3104594
VEMaps.PinData;ECOLE MATERNELLE 14 PAS SAINT-ANGE;;;14  PASSAGE SAINT-ANGE 75017 PARIS;48.8964995;2.3273019
VEMaps.PinData;ECOLE MATERNELLE 16 RUE COLONEL MOLL;;;16  RUE DU COLONEL MOLL 75017 PARIS;48.8781059;2.2899678
VEMaps.PinData;ECOLE MATERNELLE 16 RUE DAUTANCOURT;;;16  RUE DAUTANCOURT 75017 PARIS;48.889423;2.324387
VEMaps.PinData;ECOLE MATERNELLE 18 RUE AMPERE;;;18  RUE AMPERE 75017 PARIS;48.8853349;2.3047673
VEMaps.PinData;ECOLE MATERNELLE 20 RUE JOUFFROY D'ABBANS;;;20  RUE JOUFFROY D'ABBANS 75017 PARIS;48.8864641;2.3109637
VEMaps.PinData;ECOLE MATERNELLE 21 RUE ANDRE BRECHET;;;21  RUE ANDRE BRECHET 75017 PARIS;48.8988631;2.3269897
VEMaps.PinData;ECOLE MATERNELLE 21 RUE CAPITAINE LAGACHE;;;21  RUE DU CAPITAINE LAGACHE 75017 PARIS;48.8920256;2.3256539
VEMaps.PinData;ECOLE MATERNELLE 22 AV PORTE DE VILLIERS;;;22  AVENUE DE LA PORTE DE VILLIERS 75017 PARIS;48.8848527;2.2853766
VEMaps.PinData;ECOLE MATERNELLE 221 BD PEREIRE;;;221  BOULEVARD PEREIRE 75017 PARIS;48.8804491;2.2893636
VEMaps.PinData;ECOLE MATERNELLE 24 RUE CHRISTINE DE PISAN;;;24  RUE CHRISTINE DE PISAN 75017 PARIS;48.8900761;2.3080569
VEMaps.PinData;ECOLE MATERNELLE 28 RUE BROCHANT;;;28  RUE BROCHANT 75017 PARIS;48.889559;2.318974
VEMaps.PinData;ECOLE MATERNELLE 3 RUE GUSTAVE DORE;;;3  RUE GUSTAVE DORE 75017 PARIS;48.8861645;2.3033185
VEMaps.PinData;ECOLE MATERNELLE 31 RUE DES RENAUDES;;;31  RUE DES RENAUDES 75017 PARIS;48.8808671;2.2975486
VEMaps.PinData;ECOLE MATERNELLE 44 RUE EPINETTES;;;44  RUE DES EPINETTES 75017 PARIS;48.8969036;2.323904
VEMaps.PinData;ECOLE MATERNELLE 48 RUE SAUSSURE;;;48  RUE DE SAUSSURE 75017 PARIS;48.8850968;2.3152761
VEMaps.PinData;ECOLE MATERNELLE 56 RUE BAYEN;;;56  RUE BAYEN 75017 PARIS;48.8834931;2.2901767
VEMaps.PinData;ECOLE MATERNELLE 6 RUE LOUIS VIERNE;;;6  RUE LOUIS VIERNE 75017 PARIS;48.8883519;2.2898005
VEMaps.PinData;ECOLE MATERNELLE 61 CI FLEURS;;;61  CITE DES FLEURS 75017 PARIS;48.8926143;2.3203252
VEMaps.PinData;ECOLE MATERNELLE 8 RUE TAPISSERIES;;;8  RUE DES TAPISSERIES 75017 PARIS;48.8883296;2.307649
VEMaps.PinData;ECOLE MATERNELLE 90 BD BESSIERES;;;90  BOULEVARD BESSIERES 75017 PARIS;48.8964226;2.3189824
VEMaps.PinData;ECOLE ÉLÉMENTAIRE 42 RUE EPINETTES;;;42  RUE DES EPINETTES 75017 PARIS;48.8967226;2.3237172
VEMaps.PinData;ECOLE ÉLÉMENTAIRE 42 RUE POUCHET;;;42  RUE POUCHET 75017 PARIS;48.8939575;2.3204137
VEMaps.PinData;ECOLE ÉLÉMENTAIRE 49 RUE LEGENDRE;;;49  RUE LEGENDRE 75017 PARIS;48.885325;2.3162039
VEMaps.PinData;ECOLE ÉLÉMENTAIRE 5 RUE JACQUES KELLNER;;;5  RUE JACQUES KELLNER 75017 PARIS;48.8966883;2.3248523
VEMaps.PinData;ECOLE ÉLÉMENTAIRE 7 AV PORTE DE CHAMPERRET;;;7  AVENUE DE LA PORTE DE CHAMPERRET 75017 PARIS;48.8862457;2.2870991
VEMaps.PinData;ECOLE ÉLÉMENTAIRE 92 BD BESSIERES;;;92  BOULEVARD BESSIERES 75017 PARIS;48.8963531;2.3188017
VEMaps.PinData;ECOLE ÉLÉMENTAIRE 101 RUE SAUSSURE;;;101  RUE DE SAUSSURE 75017 PARIS;48.8874515;2.3117369
VEMaps.PinData;ECOLE ÉLÉMENTAIRE 105 RUE LEMERCIER;;;105  RUE LEMERCIER 75017 PARIS;48.8897427;2.3180062
VEMaps.PinData;ECOLE ÉLÉMENTAIRE 112 BD BERTHIER;;;112  BOULEVARD BERTHIER 75017 PARIS;48.8892144;2.3017984
VEMaps.PinData;ECOLE ÉLÉMENTAIRE 12 BIS RUE FOURCROY;;;12B  RUE FOURCROY 75017 PARIS;48.8804475;2.2964632
VEMaps.PinData;ECOLE ÉLÉMENTAIRE 16 RUE COLONEL MOLL;;;16  RUE DU COLONEL MOLL 75017 PARIS;48.8781059;2.2899678
VEMaps.PinData;ECOLE ÉLÉMENTAIRE 16 RUE LAUGIER;;;16  RUE LAUGIER 75017 PARIS;48.8803665;2.2966801
VEMaps.PinData;ECOLE ÉLÉMENTAIRE 18 RUE AMPERE;;;18  RUE AMPERE 75017 PARIS;48.8853349;2.3047673
VEMaps.PinData;ECOLE ÉLÉMENTAIRE 19 RUE CAPITAINE LAGACHE;;;19  RUE DU CAPITAINE LAGACHE 75017 PARIS;48.8920052;2.3257833
VEMaps.PinData;ECOLE ÉLÉMENTAIRE 20 RUE JOUFFROY D'ABBANS;;;20  RUE JOUFFROY D'ABBANS 75017 PARIS;48.8864641;2.3109637
VEMaps.PinData;ECOLE ÉLÉMENTAIRE 221 BD PEREIRE;;;221  BOULEVARD PEREIRE 75017 PARIS;48.8804491;2.2893636
VEMaps.PinData;ECOLE ÉLÉMENTAIRE 23 AV SAINT-OUEN;;;23  AVENUE DE SAINT-OUEN 75017 PARIS;48.8889445;2.3259615
VEMaps.PinData;ECOLE POLYVALENTE 10 RUE BOURSAULT;;;10  RUE BOURSAULT 75017 PARIS;48.8828295;2.3207561
VEMaps.PinData;ECOLE POLYVALENTE 15 RUE TRUFFAUT;;;15  RUE TRUFFAUT 75017 PARIS;48.8849834;2.3224696
VEMaps.PinData;ECOLE POLYVALENTE 38 BD REIMS;;;38  BOULEVARD DE REIMS 75017 PARIS;48.8881044;2.2952869
VEMaps.PinData;ECOLE POLYVALENTE 5 RUE MARGUERITE LONG;;;5  RUE MARGUERITE LONG 75017 PARIS;48.8911567;2.3044675
VEMaps.PinData;ECOLE POLYVALENTE 6 RUE LECOMTE;;;6  RUE LECOMTE 75017 PARIS;48.8887083;2.3209132
VEMaps.PinData;MAIRIE DU 17E ARRONDISSEMENT;;;16  RUE DES BATIGNOLLES 75017 PARIS;48.8842054;2.322137
VEMaps.PinData;MAISON DES ASSOCIATIONS RUE LANTIEZ;;;25  RUE LANTIEZ 75017 PARIS;48.8948843;2.323919
VEMaps.PinData;MULTI-ACCUEIL 66 RUE BERZELIUS;;;66  RUE BERZELIUS  PARIS;48.8948515;2.3202078
VEMaps.PinData;STADE DE LA PORTE D'ASNIERES;;;6  AVENUE BRUNETIERE 75017 PARIS;48.8905443;2.3014289
VEMaps.PinData;STADE PAUL FABER;;;17  AVENUE DE LA PORTE DE VILLIERS 75017 PARIS;48.8844638;2.2857612
VEMaps.PinData;GYMNASE COURCELLES;;;209  RUE DE COURCELLES 75017 PARIS;48.8893087;2.2929489
VEMaps.PinData;GYMNASE FRAGONARD;;;10  RUE FRAGONARD 75017 PARIS;48.8942498;2.3150382
VEMaps.PinData;GYMNASE JEAN LECLAIRE;;;24  RUE JEAN LECLAIRE 75017 PARIS;48.8968229;2.3273428
VEMaps.PinData;GYMNASE PIERRE REMOND;;;27  RUE MARGUERITE LONG 75017 PARIS;48.8923587;2.3025504
VEMaps.PinData;GYMNASE BERNARD LAFAY;;;26  RUE BOULAY 75017 PARIS;48.8943553;2.3179043
VEMaps.PinData;CENTRE D'ANIMATION INTER CLUB 17;;;47  RUE DE SAUSSURE 75017 PARIS;48.8851602;2.3149848
VEMaps.PinData;CENTRE D'ANIMATION LA JONQUIERE;;;88  RUE DE LA JONQUIERE 75017 PARIS;48.894733;2.319155
VEMaps.PinData;ANTENNE JEUNES LES HAUTS DE MALESHERBES ;;;27  RUE MARGUERITE LONG 75017 PARIS;48.8923587;2.3025504
VEMaps.PinData;ANTENNE JEUNES LOUCHEUR;;;3  RUE LOUIS LOUCHEUR 75017 PARIS;48.8980843;2.3256739
VEMaps.PinData;BIBLIOTHEQUE MUNICIPALE DE LA PORTE MONTMARTRE;;;18  AVENUE DE LA PORTE DE MONTMARTRE 75018 PARIS;48.8993441;2.3361773
VEMaps.PinData;BIBLIOTHEQUE MUNICIPALE MAURICE GENEVOIX;;;19  RUE TRISTAN TZARA 75018 PARIS;48.8950209;2.3637046
VEMaps.PinData;BIBLIOTHEQUE-DISCOTHEQUE MUNICIPALE DE LA GOUTTE D'OR;;;2  RUE FLEURY 75018 PARIS;48.8841895;2.3541593
VEMaps.PinData;BIBLIOTHEQUE-DISCOTHEQUE-VIDEOTHEQUE MUNICIPALE DE CLIGNANCOURT;;;29  RUE HERMEL 75018 PARIS;48.8916173;2.3444353
VEMaps.PinData;CONSERVATOIRE MUNICIPAL GUSTAVE CHARPENTIER;;;29  RUE BAUDELIQUE 75018 PARIS;48.8933823;2.3476809
VEMaps.PinData;ECOLE MATERNELLE 37 RUE DE PAJOL;;;37  RUE PAJOL 75018 PARIS;48.8883455;2.3617693
VEMaps.PinData;ECOLE MATERNELLE 1 PL CONSTANTIN PECQUEUR;;;1  PLACE CONSTANTIN PECQUEUR 75018 PARIS;48.8894034;2.3378506
VEMaps.PinData;ECOLE MATERNELLE 1 RUE GUSTAVE ROUANET;;;1  RUE GUSTAVE ROUANET 75018 PARIS;48.8964158;2.3417442
VEMaps.PinData;ECOLE MATERNELLE 1 RUE PAUL ABADIE;;;1  RUE PAUL ABADIE 75018 PARIS;48.897242;2.3357012
VEMaps.PinData;ECOLE MATERNELLE 11 RUE ANDRE DEL SARTE;;;11  RUE ANDRE DEL SARTE 75018 PARIS;48.8857576;2.3464238
VEMaps.PinData;ECOLE MATERNELLE 131 RUE BELLIARD;;;131  RUE BELLIARD 75018 PARIS;48.8963368;2.3352565
VEMaps.PinData;ECOLE MATERNELLE 18 RUE RICHOMME;;;18  RUE RICHOMME 75018 PARIS;48.8864347;2.3521259
VEMaps.PinData;ECOLE MATERNELLE 19 RUE AMIRAUX;;;19  RUE DES AMIRAUX 75018 PARIS;48.8946446;2.3502339
VEMaps.PinData;ECOLE MATERNELLE 2 RUE CHARLES HERMITE;;;2  RUE CHARLES HERMITE 75018 PARIS;48.8998507;2.3701817
VEMaps.PinData;ECOLE MATERNELLE 2 RUE VAUVENARGUES;;;2  RUE VAUVENARGUES 75018 PARIS;48.8916718;2.334987
VEMaps.PinData;ECOLE MATERNELLE 29 RUE MARCADET;;;29  RUE MARCADET 75018 PARIS;48.8903399;2.352817
VEMaps.PinData;ECOLE MATERNELLE 3 RUE FERDINAND FLOCON;;;3  RUE FERDINAND FLOCON 75018 PARIS;48.8911559;2.3456214
VEMaps.PinData;ECOLE MATERNELLE 3 RUE SAINT-LUC;;;3  RUE SAINT-LUC 75018 PARIS;48.8855996;2.3541658
VEMaps.PinData;ECOLE MATERNELLE 4 PL JEAN-BAPTISTE CLEMENT;;;4  PLACE JEAN-BAPTISTE CLEMENT 75018 PARIS;48.8863811;2.3388254
VEMaps.PinData;ECOLE MATERNELLE 4 SQ LAMARCK;;;4  SQUARE LAMARCK 75018 PARIS;48.8905067;2.335646
VEMaps.PinData;ECOLE MATERNELLE 41 RUE CLOYS;;;41  RUE DES CLOYS 75018 PARIS;48.8929786;2.3382905
VEMaps.PinData;ECOLE MATERNELLE 5 RUE CARPEAUX;;;5  RUE CARPEAUX 75018 PARIS;48.8904338;2.3300176
VEMaps.PinData;ECOLE MATERNELLE 51 RUE DEPARTEMENT;;;51  RUE DU DEPARTEMENT 75018 PARIS;48.8865045;2.3618737
VEMaps.PinData;ECOLE MATERNELLE 52 RUE VAUVENARGUES;;;52  RUE VAUVENARGUES 75018 PARIS;48.8954468;2.3315156
VEMaps.PinData;ECOLE MATERNELLE 53 BIS RUE MARX DORMOY;;;53B  RUE MARX DORMOY 75018 PARIS;48.8884194;2.3597251
VEMaps.PinData;ECOLE MATERNELLE 56 RUE ORSEL;;;56  RUE D' ORSEL 75018 PARIS;48.883547;2.3408794
VEMaps.PinData;ECOLE MATERNELLE 57 RUE GOUTTE D'OR;;;57  RUE DE LA GOUTTE D'OR 75018 PARIS;48.8850277;2.350959
VEMaps.PinData;ECOLE MATERNELLE 6 RUE RUISSEAU;;;6  RUE DU RUISSEAU 75018 PARIS;48.8918314;2.3399224
VEMaps.PinData;ECOLE MATERNELLE 60 RUE RENE BINET;;;60  RUE RENE BINET 75018 PARIS;48.8991775;2.3374569
VEMaps.PinData;ECOLE MATERNELLE 7 RUE TCHAIKOVSKI;;;7  RUE TCHAIKOVSKI 75018 PARIS;48.8939552;2.3645942
VEMaps.PinData;ECOLE MATERNELLE 7 RUE TORCY;;;7  RUE DE TORCY 75018 PARIS;48.8911258;2.3646864
VEMaps.PinData;ECOLE MATERNELLE 72 RUE CHAMPIONNET;;;72  RUE CHAMPIONNET 75018 PARIS;48.8958897;2.3448416
VEMaps.PinData;ECOLE MATERNELLE 77 RUE MONT CENIS;;;77  RUE DU MONT CENIS 75018 PARIS;48.8921927;2.3440776
VEMaps.PinData;ECOLE MATERNELLE 8 RUE CHRISTIANI;;;8  RUE CHRISTIANI 75018 PARIS;48.8859754;2.3485565
VEMaps.PinData;ECOLE MATERNELLE 94 RUE JOSEPH DE MAISTRE;;;94  RUE JOSEPH DE MAISTRE 75018 PARIS;48.8932575;2.3302833
VEMaps.PinData;ECOLE ÉLÉMENTAIRE 33 RUE DE L'EVANGILE;;;33  RUE DE L' EVANGILE 75018 PARIS;48.8940111;2.3648726
VEMaps.PinData;ECOLE ÉLÉMENTAIRE 4 RUE CHARLES HERMITE;;;4  RUE CHARLES HERMITE 75018 PARIS;48.8998469;2.369978
VEMaps.PinData;ECOLE ÉLÉMENTAIRE 5 RUE FERDINAND FLOCON;;;5  RUE FERDINAND FLOCON 75018 PARIS;48.8917428;2.345814
VEMaps.PinData;ECOLE ÉLÉMENTAIRE 5 RUE TORCY;;;5  RUE DE TORCY 75018 PARIS;48.8911352;2.3647694
VEMaps.PinData;ECOLE ÉLÉMENTAIRE 50 RUE VAUVENARGUES;;;50  RUE VAUVENARGUES 75018 PARIS;48.8953171;2.331646
VEMaps.PinData;ECOLE ÉLÉMENTAIRE 58 RUE PHILIPPE DE GIRARD;;;58  RUE PHILIPPE DE GIRARD 75018 PARIS;48.8863186;2.3611615
VEMaps.PinData;ECOLE ÉLÉMENTAIRE 6 RUE JEAN-FRANCOIS LEPINE;;;6  RUE JEAN-FRANCOIS LEPINE 75018 PARIS;48.8861557;2.3583725
VEMaps.PinData;ECOLE ÉLÉMENTAIRE 61 RUE CLIGNANCOURT;;;61  RUE DE CLIGNANCOURT 75018 PARIS;48.8879344;2.3478273
VEMaps.PinData;ECOLE ÉLÉMENTAIRE 62 RUE LEPIC;;;62  RUE LEPIC 75018 PARIS;48.8870069;2.3339071
VEMaps.PinData;ECOLE ÉLÉMENTAIRE 65 RUE DAMREMONT;;;65  RUE DAMREMONT 75018 PARIS;48.892123;2.3351362
VEMaps.PinData;ECOLE ÉLÉMENTAIRE 67 RUE DAMREMONT;;;67  RUE DAMREMONT 75018 PARIS;48.8921854;2.3352631
VEMaps.PinData;ECOLE ÉLÉMENTAIRE 69 RUE CHAMPIONNET;;;69  RUE CHAMPIONNET 75018 PARIS;48.8957634;2.3453321
VEMaps.PinData;ECOLE ÉLÉMENTAIRE 7 RUE CHAMPIONNET;;;7  RUE CHAMPIONNET 75018 PARIS;48.8951706;2.3522236
VEMaps.PinData;ECOLE ÉLÉMENTAIRE 7 RUE DOUDEAUVILLE;;;7  RUE DOUDEAUVILLE 75018 PARIS;48.8888851;2.3586806
VEMaps.PinData;ECOLE ÉLÉMENTAIRE 7 RUE GUSTAVE ROUANET;;;7  RUE GUSTAVE ROUANET 75018 PARIS;48.8963815;2.3400564
VEMaps.PinData;ECOLE ÉLÉMENTAIRE 9 RUE RICHOMME;;;9  RUE RICHOMME 75018 PARIS;48.8863363;2.3520283
VEMaps.PinData;ECOLE ÉLÉMENTAIRE B 60 RUE RENE BINET;;;60  RUE RENE BINET 75018 PARIS;48.8991775;2.3374569
VEMaps.PinData;ECOLE ELEMENTAIRE 5 RUE PIERRE  BUDIN;;;5  RUE PIERRE BUDIN 75018 PARIS;48.8897341;2.3530716
VEMaps.PinData;ECOLE ÉLÉMENTAIRE 1 RUE FOYATIER;;;1  PLACE SUZANNE VALADON 75018 PARIS;48.8844631;2.3424584
VEMaps.PinData;ECOLE ÉLÉMENTAIRE 11 RUE CAVE;;;11  RUE CAVE 75018 PARIS;48.8867319;2.3549007
VEMaps.PinData;ECOLE ÉLÉMENTAIRE 129 RUE BELLIARD;;;129  RUE BELLIARD 75018 PARIS;48.8964026;2.3357367
VEMaps.PinData;ECOLE ÉLÉMENTAIRE 15 RUE HOUDON;;;15  RUE HOUDON 75018 PARIS;48.8831876;2.3384939
VEMaps.PinData;ECOLE ÉLÉMENTAIRE 18 RUE D'ORAN;;;18  RUE D' ORAN 75018 PARIS;48.8889898;2.3531893
VEMaps.PinData;ECOLE ÉLÉMENTAIRE 18 RUE SAINTE-ISAURE;;;18  RUE SAINTE-ISAURE 75018 PARIS;48.894344;2.3444305
VEMaps.PinData;ECOLE ÉLÉMENTAIRE 19 RUE FERNAND LABORI;;;19  RUE FERNAND LABORI 75018 PARIS;48.8990305;2.3422268
VEMaps.PinData;ECOLE ÉLÉMENTAIRE 2 RUE GUADELOUPE;;;2  RUE DE LA GUADELOUPE 75018 PARIS;48.8908696;2.3627701
VEMaps.PinData;ECOLE ÉLÉMENTAIRE 20 RUE HERMEL;;;20  RUE HERMEL 75018 PARIS;48.8910965;2.3443172
VEMaps.PinData;ECOLE ÉLÉMENTAIRE 26 RUE MONT CENIS;;;26  RUE DU MONT CENIS 75018 PARIS;48.8883825;2.3422126
VEMaps.PinData;ECOLE ÉLÉMENTAIRE 29 RUE JOSEPH DE MAISTRE;;;29  RUE JOSEPH DE MAISTRE 75018 PARIS;48.8914598;2.3308091
VEMaps.PinData;ECOLE POLYVALENTE A 60 RUE RENE BINET;;;60  RUE RENE BINET 75018 PARIS;48.8991775;2.3374569
VEMaps.PinData;ECOLE POLYVALENTE 11 RUE PAJOL;;;11B  RUE PAJOL 75018 PARIS;48.8855407;2.3606057
VEMaps.PinData;ECOLE POLYVALENTE 12 RUE DE TORCY;;;12  RUE DE TORCY 75018 PARIS;48.8912762;2.3641225
VEMaps.PinData;ECOLE POLYVALENTE 14 RUE FOREST;;;14  RUE FOREST 75018 PARIS;48.8856753;2.3292066
VEMaps.PinData;ECOLE POLYVALENTE 142 RUE POISSONNIERS;;;142  RUE DES POISSONNIERS 75018 PARIS;48.8965032;2.3528405
VEMaps.PinData;ECOLE POLYVALENTE 27 RUE EMILE DUPLOYE;;;27  RUE EMILE DUPLOYE 75018 PARIS;48.8901053;2.3551664
VEMaps.PinData;ECOLE POLYVALENTE 3 RUE MAURICE GENEVOIX;;;3  RUE MAURICE GENEVOIX 75018 PARIS;48.8944778;2.3604061
VEMaps.PinData;ECOLE POLYVALENTE 30 RUE CUGNOT;;;30  RUE CUGNOT 75018 PARIS;48.8926676;2.3645635
VEMaps.PinData;ECOLE POLYVALENTE 49 BIS RUE GOUTTE D'OR;;;49B  RUE DE LA GOUTTE D'OR 75018 PARIS;48.8849349;2.3520178
VEMaps.PinData;ECOLE POLYVALENTE 14 RUE SIMPLON;;;14  RUE DU SIMPLON 75018 PARIS;48.8936089;2.351041
VEMaps.PinData;MAIRIE DU 18E ARRONDISSEMENT;;;1  PLACE JULES JOFFRIN 75018 PARIS;48.892028;2.3445174
VEMaps.PinData;MAISON DES ASSOCIATIONS PASSAGE RAMEY;;;15  PASSAGE RAMEY 75018 PARIS;48.8901023;2.3474432
VEMaps.PinData;ANTENNE DE CRÈCHE FAMILIALE 44, RUE LÉON;;;44  RUE LEON 75018 PARIS;48.8898363;2.3535079
VEMaps.PinData;GYMNASE DES AMIRAUX;;;12  RUE DES AMIRAUX 75018 PARIS;48.8945644;2.3513779
VEMaps.PinData;GYMNASE DOUDEAUVILLE;;;82  RUE DOUDEAUVILLE 75018 PARIS;48.8884098;2.350584
VEMaps.PinData;GYMNASE GOUTTE D'OR;;;9  RUE BORIS VIAN 75018 PARIS;48.8849703;2.3540261
VEMaps.PinData;GYMNASE LEPIC DURANTIN;;;45  RUE DURANTIN 75018 PARIS;48.8868969;2.3346125
VEMaps.PinData;GYMNASE RONSARD;;;2  RUE RONSARD 75018 PARIS;48.8848659;2.344221
VEMaps.PinData;GYMNASE TRISTAN TZARA;;;11  RUE TRISTAN TZARA 75018 PARIS;48.8949182;2.3649091
VEMaps.PinData;CENTRE D'ANIMATION DES ABBESSES;;;10  PASSAGE DES ABBESSES 75018 PARIS;48.885475;2.3384384
VEMaps.PinData;ESPACE JEUNES CHARLES HERMITE;;;54  BOULEVARD NEY 75018 PARIS;48.8988095;2.3638266
VEMaps.PinData;ESPACE JEUNES GOUTTE D'OR;;;6  RUE DE LA GOUTTE D'OR 75018 PARIS;48.8850244;2.3543004
VEMaps.PinData;CENTRE D'ANIMATION HEBERT;;;12  RUE DES FILLETTES 75018 PARIS;48.8942716;2.3632877
VEMaps.PinData;CENTRE D'ANIMATION LA CHAPELLE;;;32  BOULEVARD DE LA CHAPELLE 75018 PARIS;48.8845119;2.3614514
VEMaps.PinData;CENTRE D'ANIMATION RENE BINET;;;66  RUE RENE BINET 75018 PARIS;48.899147;2.3362958
VEMaps.PinData;ANTENNE JEUNES MONT-CENIS;;;119  RUE DU MONT CENIS 75018 PARIS;48.895608;2.3460347
VEMaps.PinData;ESPACE JEUNES FILLETTES;;;48  RUE CHARLES HERMITE  PARIS;48.8992878;2.365543
VEMaps.PinData;BIBLIOTHEQUE MUNICIPALE BENJAMIN RABIER;;;141  AVENUE DE FLANDRE 75019 PARIS;48.8926274;2.3791248
VEMaps.PinData;BIBLIOTHEQUE MUNICIPALE CRIMEE;;;42  RUE PETIT 75019 PARIS;48.8849087;2.3830045
VEMaps.PinData;BIBLIOTHEQUE MUNICIPALE FESSART;;;6  RUE FESSART 75019 PARIS;48.8762633;2.3881384
VEMaps.PinData;BIBLIOTHEQUE MUNICIPALE FLANDRE;;;35  AVENUE DE FLANDRE 75019 PARIS;48.8867694;2.3714211
VEMaps.PinData;BIBLIOTHEQUE-DISCOTHEQUE MUNICIPALE DE LA PLACE DES FETES;;;18  RUE JANSSEN 75019 PARIS;48.879374;2.3976022
VEMaps.PinData;BIBLIOTHEQUE-DISCOTHEQUE MUNICIPALE HERGE;;;2B  RUE DU DEPARTEMENT 75019 PARIS;48.8848773;2.3674171
VEMaps.PinData;CONSERVATOIRE MUNICIPAL JACQUES IBERT;;;81  RUE ARMAND CARREL 75019 PARIS;48.8828375;2.3720604
VEMaps.PinData;ECOLE MATERNELLE 345 RUE DE BELLEVILLE;;;345  RUE DE BELLEVILLE 75019 PARIS;48.8770522;2.4056787
VEMaps.PinData;ÉCOLE MATERNELLE 5 RUE DE CAMBRAI;;;5  RUE DE CAMBRAI 75019 PARIS;48.8949995;2.3784643
VEMaps.PinData;ANNEXE MATERNELLE DU 8 RUE EMELIE;;;2  RUE JOMARD 75019 PARIS;48.8893559;2.3790654
VEMaps.PinData;ECOLE MATERNELLE 1 RUE PALESTINE;;;1  RUE DE PALESTINE 75019 PARIS;48.8762839;2.3894364
VEMaps.PinData;ECOLE MATERNELLE 11 RUE GEORGES THILL;;;11  RUE GEORGES THILL 75019 PARIS;48.8875773;2.3884967
VEMaps.PinData;ECOLE MATERNELLE 132 RUE AUBERVILLIERS;;;132A  RUE D' AUBERVILLIERS 75019 PARIS;48.8920284;2.3691791
VEMaps.PinData;ECOLE MATERNELLE 15 RUE TANGER;;;15  RUE DE TANGER 75019 PARIS;48.8854143;2.3677878
VEMaps.PinData;ECOLE MATERNELLE 2 COURS SEPTIEME ART;;;2  COURS DU SEPTIEME ART 75019 PARIS;48.8780629;2.3880404
VEMaps.PinData;ECOLE MATERNELLE 2 RUE BOIS;;;2  RUE DES BOIS 75019 PARIS;48.877686;2.3956728
VEMaps.PinData;ECOLE MATERNELLE 2 RUE JEAN MENANS;;;2  RUE JEAN MENANS 75019 PARIS;48.8811663;2.3787617
VEMaps.PinData;ECOLE MATERNELLE 22 RUE TANDOU;;;22  RUE TANDOU 75019 PARIS;48.8864235;2.380417
VEMaps.PinData;ECOLE MATERNELLE 26 RUE ARCHEREAU;;;26C  RUE ARCHEREAU 75019 PARIS;48.8905019;2.3730446
VEMaps.PinData;ECOLE MATERNELLE 28 RUE AUBERVILLIERS;;;28  RUE D' AUBERVILLIERS 75019 PARIS;48.8857355;2.3661432
VEMaps.PinData;ECOLE MATERNELLE 29 RUE PREVOYANCE;;;29  RUE DE LA PREVOYANCE 75019 PARIS;48.8837541;2.3947845
VEMaps.PinData;ECOLE MATERNELLE 34 RUE MANIN;;;34  RUE MANIN 75019 PARIS;48.8835596;2.3894914
VEMaps.PinData;ECOLE MATERNELLE 34 RUE MAROC;;;34  RUE DU MAROC 75019 PARIS;48.8871538;2.3677646
VEMaps.PinData;ECOLE MATERNELLE 36 RUE FESSART;;;36  RUE FESSART 75019 PARIS;48.8768484;2.384505
VEMaps.PinData;ECOLE MATERNELLE 41 RUE TANGER;;;41  RUE DE TANGER 75019 PARIS;48.8875687;2.370103
VEMaps.PinData;ECOLE MATERNELLE 47 RUE ARMAND CARREL;;;47  RUE ARMAND CARREL 75019 PARIS;48.8827433;2.3758675
VEMaps.PinData;ECOLE MATERNELLE 5 ALL EIDERS;;;5  ALLEE DES EIDERS 75019 PARIS;48.8942314;2.3790393
VEMaps.PinData;ECOLE MATERNELLE 5 RUE GENERAL LASALLE;;;5  RUE DU GENERAL LASALLE 75019 PARIS;48.8740671;2.3803257
VEMaps.PinData;ECOLE MATERNELLE EUGENIE COTTON;;;20  RUE EUGENIE COTTON 75019 PARIS;48.8788391;2.3949916
VEMaps.PinData;ECOLE MATERNELLE 5 RUE NOYER-DURAND;;;5  RUE DU NOYER-DURAND 75019 PARIS;48.8875819;2.399422
VEMaps.PinData;ECOLE MATERNELLE 5 RUE RAMPAL;;;5  RUE RAMPAL 75019 PARIS;48.8734082;2.3796655
VEMaps.PinData;ECOLE MATERNELLE 58 RUE ARCHEREAU;;;58A  RUE ARCHEREAU 75019 PARIS;48.8927522;2.3756219
VEMaps.PinData;ECOLE MATERNELLE 59B RUE ROMAINVILLE;;;59B  RUE DE ROMAINVILLE 75019 PARIS;48.8774021;2.4032549
VEMaps.PinData;ECOLE MATERNELLE 6 PAS THIONVILLE;;;6  PASSAGE DE THIONVILLE 75019 PARIS;48.8882756;2.3819782
VEMaps.PinData;ECOLE MATERNELLE 63 RUE ARCHEREAU;;;63  RUE ARCHEREAU 75019 PARIS;48.892653;2.375688
VEMaps.PinData;ECOLE MATERNELLE 65 AV SIMON BOLIVAR;;;65  AVENUE SIMON BOLIVAR 75019 PARIS;48.876377;2.3775056
VEMaps.PinData;ECOLE MATERNELLE 8 RUE BARBANEGRE;;;8  RUE BARBANEGRE 75019 PARIS;48.8923571;2.3832921
VEMaps.PinData;ECOLE MATERNELLE 8 RUE EMELIE;;;8  RUE EMELIE 75019 PARIS;48.889516;2.378099
VEMaps.PinData;ECOLE MATERNELLE 8 RUE SADI LECOINTE;;;8  RUE SADI LECOINTE 75019 PARIS;48.8803668;2.3738327
VEMaps.PinData;ECOLE MATERNELLE 84 RUE CURIAL;;;84  RUE CURIAL 75019 PARIS;48.8949618;2.3745252
VEMaps.PinData;ECOLE MATERNELLE 9 RUE GENERAL BRUNET;;;9  RUE DU GENERAL BRUNET 75019 PARIS;48.8803521;2.3903702
VEMaps.PinData;ECOLE ÉLÉMENTAIRE 4 RUE GOUBET;;;4  RUE GOUBET 75019 PARIS;48.883353;2.3890374
VEMaps.PinData;ECOLE ÉLÉMENTAIRE 43 RUE ARMAND CARREL;;;43  RUE ARMAND CARREL 75019 PARIS;48.8827426;2.3765292
VEMaps.PinData;ECOLE ÉLÉMENTAIRE 5 RUE ALOUETTES;;;5  RUE DES ALOUETTES 75019 PARIS;48.877012;2.3852391
VEMaps.PinData;ECOLE ÉLÉMENTAIRE 61 RUE VILLETTE;;;61  RUE DE LA VILLETTE 75019 PARIS;48.8783747;2.3881409
VEMaps.PinData;ECOLE ÉLÉMENTAIRE 67 AV SIMON BOLIVAR;;;67  AVENUE SIMON BOLIVAR 75019 PARIS;48.8763763;2.3771849
VEMaps.PinData;ECOLE ÉLÉMENTAIRE 9 RUE JOMARD;;;9  RUE JOMARD 75019 PARIS;48.8897801;2.3797367
VEMaps.PinData;ECOLE ÉLÉMENTAIRE 9 RUE PIERRE GIRARD;;;9  RUE PIERRE GIRARD 75019 PARIS;48.8859458;2.3796319
VEMaps.PinData;ECOLE ÉLÉMENTAIRE 9 RUE TANDOU;;;9  RUE TANDOU 75019 PARIS;48.8860235;2.3792228
VEMaps.PinData;ECOLE ÉLÉMENTAIRE A 1 RUE GENERAL LASALLE;;;1  RUE DU GENERAL LASALLE 75019 PARIS;48.8744048;2.3815647
VEMaps.PinData;ECOLE ÉLÉMENTAIRE A 105 BIS RUE OURCQ;;;105B  RUE DE L' OURCQ 75019 PARIS;48.8936049;2.3752123
VEMaps.PinData;ECOLE ÉLÉMENTAIRE A 106 RUE COMPANS;;;106  RUE COMPANS 75019 PARIS;48.8803617;2.3897676
VEMaps.PinData;ECOLE ÉLÉMENTAIRE A 119 AV SIMON BOLIVAR;;;119  AVENUE SIMON BOLIVAR 75019 PARIS;48.8798428;2.3742527
VEMaps.PinData;ECOLE ÉLÉMENTAIRE A 40BIS RUE MANIN;;;40B  RUE MANIN 75019 PARIS;48.883827;2.3902391
VEMaps.PinData;ECOLE ÉLÉMENTAIRE A 41 RUE TANGER;;;41  RUE DE TANGER 75019 PARIS;48.8875687;2.370103
VEMaps.PinData;ECOLE ÉLÉMENTAIRE A 57 RUE ROMAINVILLE;;;57  RUE DE ROMAINVILLE 75019 PARIS;48.8772754;2.4032261
VEMaps.PinData;ECOLE ÉLÉMENTAIRE A 7 RUE BARBANEGRE;;;7  RUE BARBANEGRE 75019 PARIS;48.8920907;2.3828226
VEMaps.PinData;ECOLE ÉLÉMENTAIRE A 84 RUE CURIAL;;;84  RUE CURIAL 75019 PARIS;48.8949618;2.3745252
VEMaps.PinData;ECOLE ÉLÉMENTAIRE B 105 BIS RUE OURCQ;;;105B  RUE DE L' OURCQ 75019 PARIS;48.8936049;2.3752123
VEMaps.PinData;ECOLE ÉLÉMENTAIRE B 11 RUE RAMPAL;;;11  RUE RAMPAL 75019 PARIS;48.8737603;2.379729
VEMaps.PinData;ECOLE ÉLÉMENTAIRE B 119 AV SIMON BOLIVAR;;;119  AVENUE SIMON BOLIVAR 75019 PARIS;48.8798428;2.3742527
VEMaps.PinData;ECOLE ÉLÉMENTAIRE B 30 RUE MANIN;;;30  RUE MANIN 75019 PARIS;48.883363;2.3890571
VEMaps.PinData;ECOLE ÉLÉMENTAIRE B 41 RUE TANGER;;;41B  RUE DE TANGER 75019 PARIS;48.8875687;2.370103
VEMaps.PinData;ECOLE ÉLÉMENTAIRE B 59 RUE ROMAINVILLE;;;59  RUE DE ROMAINVILLE 75019 PARIS;48.8774021;2.4032549
VEMaps.PinData;ECOLE ÉLÉMENTAIRE B 7 RUE BARBANEGRE;;;7  RUE BARBANEGRE 75019 PARIS;48.8920907;2.3828226
VEMaps.PinData;ECOLE ÉLÉMENTAIRE B 7 RUE GENERAL BRUNET;;;7  RUE DU GENERAL BRUNET 75019 PARIS;48.8801044;2.3903343
VEMaps.PinData;ECOLE ÉLÉMENTAIRE B 84 RUE CURIAL;;;84  RUE CURIAL 75019 PARIS;48.8949618;2.3745252
VEMaps.PinData;ÉCOLE ÉLÉMENTAIRE A 16 RUE EUGÉNIE COTTON;;;16  RUE EUGENIE COTTON 75019 PARIS;48.8787801;2.3944208
VEMaps.PinData;ECOLE ÉLÉMENTAIRE B 16 RUE EUGÉNIE COTTON;;;16  RUE EUGENIE COTTON 75019 PARIS;48.8787801;2.3944208
VEMaps.PinData;ECOLE ÉLÉMENTAIRE 132 RUE AUBERVILLIERS;;;132A  RUE D' AUBERVILLIERS 75019 PARIS;48.8920284;2.3691791
VEMaps.PinData;ECOLE ÉLÉMENTAIRE 14 RUE MATHIS;;;14  RUE MATHIS 75019 PARIS;48.8907644;2.3754336
VEMaps.PinData;ECOLE ÉLÉMENTAIRE 16 RUE CHEMINETS;;;16  RUE DES CHEMINETS 75019 PARIS;48.8878002;2.3980119
VEMaps.PinData;ECOLE ÉLÉMENTAIRE 160 AV JEAN JAURES;;;160  AVENUE JEAN JAURES 75019 PARIS;48.8874382;2.3880018
VEMaps.PinData;ECOLE ÉLÉMENTAIRE 17 RUE TANGER;;;17  RUE DE TANGER 75019 PARIS;48.8857199;2.3683496
VEMaps.PinData;ECOLE ÉLÉMENTAIRE 4 RUE FESSART;;;4  RUE FESSART 75019 PARIS;48.8762488;2.388448
VEMaps.PinData;ECOLE POLYVALENTE 10 RUE HENRI NOGUERES;;;10  RUE HENRI NOGUERES 75019 PARIS;48.8848482;2.37435
VEMaps.PinData;ECOLE POLYVALENTE 16 RUE TANDOU;;;16  RUE TANDOU 75019 PARIS;48.886345;2.3802575
VEMaps.PinData;ECOLE POLYVALENTE 53 RUE EMILE BOLLAERT;;;53  RUE EMILE BOLLAERT 75019 PARIS;48.8998169;2.3751041
VEMaps.PinData;ECOLE POLYVALENTE QUAI DU LOT / BOULEVARD MAC DONALD;;;118  BOULEVARD MACDONALD  PARIS;48.8989137;2.3815573
VEMaps.PinData;MAIRIE DU 19E ARRONDISSEMENT;;;5  PLACE ARMAND CARREL 75019 PARIS;48.8825582;2.3816987
VEMaps.PinData;MAISON DU COMBATTANT ET DES ASSOCIATIONS;;;20  RUE EDOUARD PAILLERON 75019 PARIS;48.8804908;2.3766261
VEMaps.PinData;MAISON DES RAPATRIES;;;7  RUE PIERRE GIRARD  PARIS;48.8858854;2.3795067
VEMaps.PinData;GYMNASE ATLAS;;;18B  RUE DE L' ATLAS 75019 PARIS;48.8756819;2.3765711
VEMaps.PinData;GYMNASE CURIAL;;;84  RUE CURIAL 75019 PARIS;48.8949618;2.3745252
VEMaps.PinData;GYMNASE DES LILAS;;;5  RUE DES LILAS 75019 PARIS;48.8782523;2.3953475
VEMaps.PinData;GYMNASE HAUTPOUL;;;50  RUE D' HAUTPOUL 75019 PARIS;48.8846847;2.3873183
VEMaps.PinData;GYMNASE JEAN JAURES;;;87  AVENUE JEAN JAURES 75019 PARIS;48.8853291;2.3793163
VEMaps.PinData;GYMNASE MATHIS;;;11  RUE MATHIS 75019 PARIS;48.8907412;2.3754232
VEMaps.PinData;GYMNASE PORTE DE CHAUMONT;;;22  AVENUE DE LA PORTE CHAUMONT 75019 PARIS;48.8858911;2.3988867
VEMaps.PinData;GYMNASE SIMON BOLIVAR;;;69  AVENUE SIMON BOLIVAR 75019 PARIS;48.8762129;2.3764725
VEMaps.PinData;GYMNASE TANDOU;;;11  RUE TANDOU 75019 PARIS;48.8860316;2.3794199
VEMaps.PinData;CENTRE D'ANIMATION SOLIDARITE ANGELE MERCIER;;;135  BOULEVARD SERURIER 75019 PARIS;48.8845312;2.3945425
VEMaps.PinData;CENTRE D'ANIMATION CLAVEL;;;28  RUE CLAVEL 75019 PARIS;48.876517;2.3837865
VEMaps.PinData;CENTRE D'ANIMATION CURIAL;;;90  RUE CURIAL 75019 PARIS;48.8956662;2.3753859
VEMaps.PinData;CENTRE D'ANIMATION PLACE DES FETES;;;4  RUE DES LILAS 75019 PARIS;48.8781021;2.395776
VEMaps.PinData;CENTRE D'ANIMATION MATHIS;;;15  RUE MATHIS 75019 PARIS;48.8908421;2.3748988
VEMaps.PinData;CENTRE D'ANIMATION REBEVAL;;;36  RUE REBEVAL 75019 PARIS;48.8744305;2.3782204
VEMaps.PinData;CENTRE D'ANIMATION REBEVAL ANNEXE;;;45  RUE REBEVAL 75019 PARIS;48.8748661;2.3792821
VEMaps.PinData;ANTENNE JEUNES FLANDRE;;;49T  AVENUE DE FLANDRE 75019 PARIS;48.8870405;2.3721121
VEMaps.PinData;ANTENNE JEUNES SOLIDARITE;;;2B  RUE DE LA SOLIDARITE 75019 PARIS;48.8828422;2.3894714
VEMaps.PinData;ANTENNE JEUNES CURIAL;;;90  RUE CURIAL 75019 PARIS;48.8956662;2.3753859
VEMaps.PinData;BIBLIOTHÈQUE MÉDIATHÈQUE MARGUERITE DURAS;;;109  RUE DE BAGNOLET 75020 PARIS;48.8596674;2.4030811
VEMaps.PinData;BIBLIOTHEQUE MUNICIPALE MORTIER;;;109  BOULEVARD MORTIER 75020 PARIS;48.8716264;2.4086855
VEMaps.PinData;BIBLIOTHEQUE MUNICIPALE REUNION;;;29  RUE DES HAIES 75020 PARIS;48.8531649;2.4010836
VEMaps.PinData;BIBLIOTHEQUE MUNICIPALE SORBIER;;;17  RUE SORBIER 75020 PARIS;48.8659911;2.3927992
VEMaps.PinData;BIBLIOTHEQUE-DISCOTHEQUE MUNICIPALE COURONNES;;;66  RUE DES COURONNES 75020 PARIS;48.8700909;2.3854119
VEMaps.PinData;BIBLIOTHEQUE-DISCOTHEQUE MUNICIPALE SAINT-FARGEAU;;;12B  RUE DU TELEGRAPHE 75020 PARIS;48.8719887;2.399993
VEMaps.PinData;CONSERVATOIRE MUNICIPAL GEORGES BIZET;;;54  RUE DES CENDRIERS 75020 PARIS;48.8662387;2.3893742
VEMaps.PinData;ECOLE MATERNELLE 12 RUE BRETONNEAU;;;12  RUE BRETONNEAU 75020 PARIS;48.8675944;2.4031075
VEMaps.PinData;ECOLE MATERNELLE 12 RUE FONTARABIE;;;12  RUE DE FONTARABIE 75020 PARIS;48.8575213;2.4004344
VEMaps.PinData;ECOLE MATERNELLE 12 RUE GRANDS CHAMPS;;;12  RUE DES GRANDS CHAMPS 75020 PARIS;48.8504739;2.3997506
VEMaps.PinData;ECOLE MATERNELLE 15 RUE EUPATORIA;;;15  RUE D' EUPATORIA 75020 PARIS;48.8688517;2.3870711
VEMaps.PinData;ECOLE MATERNELLE 172 RUE PELLEPORT;;;172  RUE PELLEPORT 75020 PARIS;48.8737409;2.3979102
VEMaps.PinData;ECOLE MATERNELLE 18 RUE CLOS;;;18  RUE DU CLOS 75020 PARIS;48.857301;2.4070965
VEMaps.PinData;ECOLE MATERNELLE 18 RUE MARYSE HILSZ;;;18  RUE MARYSE HILSZ 75020 PARIS;48.8505939;2.4127709
VEMaps.PinData;ECOLE MATERNELLE 10 RUE MENILMONTANT;;;10  RUE DE MENILMONTANT 75020 PARIS;48.8672608;2.3841934
VEMaps.PinData;ECOLE MATERNELLE 18 RUE SURMELIN;;;18  RUE DU SURMELIN 75020 PARIS;48.8679388;2.4033369
VEMaps.PinData;ECOLE MATERNELLE 2 RUE EUGENE REISZ;;;2  RUE EUGENE REISZ 75020 PARIS;48.8562627;2.4105069
VEMaps.PinData;ECOLE MATERNELLE 2 RUE PIERRE FONCIN;;;2  RUE PIERRE FONCIN 75020 PARIS;48.8714167;2.4087488
VEMaps.PinData;ECOLE MATERNELLE 20 RUE CENDRIERS;;;20  RUE DES CENDRIERS 75020 PARIS;48.865556;2.3869515
VEMaps.PinData;ECOLE MATERNELLE 21 RUE BIDASSOA;;;21  RUE DE LA BIDASSOA 75020 PARIS;48.866109;2.3937217
VEMaps.PinData;ECOLE MATERNELLE 24 RUE RETRAIT;;;24  RUE DU RETRAIT 75020 PARIS;48.8690151;2.3939285
VEMaps.PinData;ECOLE MATERNELLE 26 RUE COUR DES NOUES;;;26  RUE DE LA COUR DES NOUES 75020 PARIS;48.8643958;2.4006398
VEMaps.PinData;ECOLE MATERNELLE 29 AV GAMBETTA;;;29  AVENUE GAMBETTA 75020 PARIS;48.8641265;2.3919682
VEMaps.PinData;ECOLE MATERNELLE 29 RUE OLIVIER METRA;;;29  RUE OLIVIER METRA 75020 PARIS;48.8730124;2.3938343
VEMaps.PinData;ECOLE MATERNELLE 29 RUE TELEGRAPHE;;;29  RUE DU TELEGRAPHE 75020 PARIS;48.8732481;2.3991873
VEMaps.PinData;ECOLE MATERNELLE 31 RUE MARAICHERS;;;31  RUE DES MARAICHERS 75020 PARIS;48.8506825;2.4073471
VEMaps.PinData;ECOLE MATERNELLE 31 RUE OLIVIER METRA;;;31  RUE OLIVIER METRA 75020 PARIS;48.8731175;2.3937502
VEMaps.PinData;ECOLE MATERNELLE 32 RUE PALI-KAO;;;32  RUE DE PALI-KAO 75020 PARIS;48.8704185;2.3820576
VEMaps.PinData;ECOLE MATERNELLE 39 RUE TOURTILLE;;;39  RUE DE TOURTILLE 75020 PARIS;48.8720244;2.380578
VEMaps.PinData;ECOLE MATERNELLE 4 RUE JOURDAIN;;;4  RUE DU JOURDAIN 75020 PARIS;48.874929;2.3897042
VEMaps.PinData;ECOLE MATERNELLE 52 RUE PLANCHAT;;;52  RUE PLANCHAT 75020 PARIS;48.8557836;2.3966413
VEMaps.PinData;ECOLE MATERNELLE 61 RUE VITRUVE;;;61  RUE VITRUVE 75020 PARIS;48.8594217;2.4070023
VEMaps.PinData;ECOLE MATERNELLE 68 RUE VITRUVE;;;68  RUE VITRUVE 75020 PARIS;48.859275;2.4067436
VEMaps.PinData;ECOLE MATERNELLE 8 RUE LE VAU;;;8  RUE LE VAU 75020 PARIS;48.865989;2.4113824
VEMaps.PinData;ECOLE MATERNELLE 9 RUE LESSEPS;;;9  RUE DE LESSEPS 75020 PARIS;48.8588694;2.4000262
VEMaps.PinData;ECOLE MATERNELLE 9 RUE MOURAUD;;;9  RUE MOURAUD 75020 PARIS;48.8554622;2.4078434
VEMaps.PinData;ECOLE MATERNELLE 90 RUE AMANDIERS;;;90  RUE DES AMANDIERS 75020 PARIS;48.8669208;2.3894425
VEMaps.PinData;ECOLE MATERNELLE 91 RUE REUNION;;;91  RUE DE LA REUNION 75020 PARIS;48.8565157;2.4002122
VEMaps.PinData;ECOLE MATERNELLE 94 RUE COURONNES;;;94  RUE DES COURONNES 75020 PARIS;48.8704963;2.387528
VEMaps.PinData;ECOLE MATERNELLE 99 RUE PELLEPORT;;;99  RUE PELLEPORT 75020 PARIS;48.8702313;2.3997143
VEMaps.PinData;ECOLE MATERNELLE 99 RUE PYRENEES;;;99  RUE DES PYRENEES 75020 PARIS;48.8549922;2.4052206
VEMaps.PinData;ECOLE ÉLÉMENTAIRE 3 PAS JOSSEAUME;;;3  PASSAGE JOSSEAUME 75020 PARIS;48.8548077;2.402737
VEMaps.PinData;ECOLE ÉLÉMENTAIRE 31 RUE ETIENNE DOLET;;;31  RUE ETIENNE DOLET 75020 PARIS;48.8681557;2.3854017
VEMaps.PinData;ECOLE ÉLÉMENTAIRE 38 RUE TOURTILLE;;;38  RUE DE TOURTILLE 75020 PARIS;48.8723186;2.3804077
VEMaps.PinData;ECOLE ÉLÉMENTAIRE 4 RUE EUGENE REISZ;;;4  RUE EUGENE REISZ 75020 PARIS;48.8565259;2.4108008
VEMaps.PinData;ECOLE ÉLÉMENTAIRE 40 RUE PYRENEES;;;40  RUE DES PYRENEES 75020 PARIS;48.8509144;2.4065281
VEMaps.PinData;ECOLE ÉLÉMENTAIRE 42 RUE MARE;;;42  RUE DE LA MARE 75020 PARIS;48.8711449;2.3899685
VEMaps.PinData;ECOLE ÉLÉMENTAIRE 5 RUE MOURAUD;;;5  RUE MOURAUD 75020 PARIS;48.8546841;2.4079028
VEMaps.PinData;ECOLE ÉLÉMENTAIRE 51 RUE RAMPONEAU;;;51  RUE RAMPONEAU 75020 PARIS;48.8719366;2.3824788
VEMaps.PinData;ECOLE ÉLÉMENTAIRE 54 RUE PLANCHAT;;;54  RUE PLANCHAT 75020 PARIS;48.8559862;2.3965013
VEMaps.PinData;ECOLE ÉLÉMENTAIRE 8 RUE PIERRE FONCIN;;;8  RUE PIERRE FONCIN 75020 PARIS;48.8714033;2.4103009
VEMaps.PinData;ECOLE ÉLÉMENTAIRE 9 RUE BRETONNEAU;;;9  RUE BRETONNEAU 75020 PARIS;48.8676669;2.4031053
VEMaps.PinData;ECOLE ÉLÉMENTAIRE 9 RUE LESSEPS;;;9  RUE DE LESSEPS 75020 PARIS;48.8588694;2.4000262
VEMaps.PinData;ECOLE ÉLÉMENTAIRE 9 RUE PLAINE;;;9  RUE DE LA PLAINE 75020 PARIS;48.8499342;2.4000522
VEMaps.PinData;ECOLE ÉLÉMENTAIRE 9 RUE TLEMCEN;;;9  RUE DE TLEMCEN 75020 PARIS;48.8645239;2.3871929
VEMaps.PinData;ECOLE ÉLÉMENTAIRE 97 RUE PYRENEES;;;97  RUE DES PYRENEES 75020 PARIS;48.8549762;2.4052887
VEMaps.PinData;ECOLE ÉLÉMENTAIRE 1 RUE LEVERT;;;1  RUE LEVERT 75020 PARIS;48.8728795;2.3894919
VEMaps.PinData;ECOLE ÉLÉMENTAIRE 10 RUE LE VAU;;;10  RUE LE VAU 75020 PARIS;48.8665056;2.4111748
VEMaps.PinData;ECOLE ÉLÉMENTAIRE 103 AV GAMBETTA;;;103  AVENUE GAMBETTA 75020 PARIS;48.8668937;2.3999623
VEMaps.PinData;ECOLE ÉLÉMENTAIRE 103 RUE AMANDIERS;;;103  RUE DES AMANDIERS 75020 PARIS;48.8673465;2.3889876
VEMaps.PinData;ECOLE ÉLÉMENTAIRE 104 RUE BELLEVILLE;;;104  RUE DE BELLEVILLE 75020 PARIS;48.8744891;2.3866525
VEMaps.PinData;ECOLE ÉLÉMENTAIRE 11 RUE LESSEPS;;;11  RUE DE LESSEPS 75020 PARIS;48.8590803;2.3997318
VEMaps.PinData;ECOLE ÉLÉMENTAIRE 11 RUE PLAINE;;;11  RUE DE LA PLAINE 75020 PARIS;48.8499684;2.4005267
VEMaps.PinData;ECOLE ÉLÉMENTAIRE 14 RUE RIBLETTE;;;14  RUE RIBLETTE 75020 PARIS;48.8599633;2.4057604
