{"d":[
{"__type": "VEMaps.PinData","Title": "ECOLE MATERNELLE 27 RUE LA SOURDIERE","Name": "","Description": "","Latitude":48.8667748,"Longitude": 2.3328349},
{"__type": "VEMaps.PinData","Title": "ECOLE MATERNELLE 6 RUE SAINT-GERMAIN L'AUXERROIS","Name": "","Description": "","Latitude":48.8582208,"Longitude": 2.3450923},
{"__type": "VEMaps.PinData","Title": "ECOLE ÉLÉMENTAIRE 11 RUE ARGENTEUIL","Name": "","Description": "","Latitude":48.864939,"Longitude": 2.3338453},
{"__type": "VEMaps.PinData","Title": "ECOLE ÉLÉMENTAIRE 15 RUE ARBRE SEC","Name": "","Description": "","Latitude":48.8597031,"Longitude": 2.3419602},
{"__type": "VEMaps.PinData","Title": "ECOLE POLYVALENTE 28 RUE CAMBON","Name": "","Description": "","Latitude":48.8681342,"Longitude": 2.3268589},
{"__type": "VEMaps.PinData","Title": "MAIRIE DU 1ER ARRONDISSEMENT","Name": "","Description": "","Latitude":48.860138,"Longitude": 2.3411188},
{"__type": "VEMaps.PinData","Title": "MAISON PROVISOIRE DES ASSOCIATIONS","Name": "","Description": "","Latitude":48.8626844,"Longitude": 2.3468031},
{"__type": "VEMaps.PinData","Title": "ECOLE MATERNELLE 11 RUE VIVIENNE","Name": "","Description": "","Latitude":48.86735,"Longitude": 2.3391885},
{"__type": "VEMaps.PinData","Title": "ECOLE MATERNELLE 12 RUE DUSSOUBS","Name": "","Description": "","Latitude":48.8651293,"Longitude": 2.3486038},
{"__type": "VEMaps.PinData","Title": "ECOLE MATERNELLE 221 RUE SAINT-DENIS","Name": "","Description": "","Latitude":48.8676223,"Longitude": 2.3516106},
{"__type": "VEMaps.PinData","Title": "ECOLE ÉLÉMENTAIRE 3 RUE JUSSIENNE","Name": "","Description": "","Latitude":48.864875,"Longitude": 2.345026},
{"__type": "VEMaps.PinData","Title": "ECOLE ÉLÉMENTAIRE 42 RUE DUSSOUBS","Name": "","Description": "","Latitude":48.8672653,"Longitude": 2.3497344},
{"__type": "VEMaps.PinData","Title": "ECOLE ÉLÉMENTAIRE 6 RUE DE LOUVOIS","Name": "","Description": "","Latitude":48.867878,"Longitude": 2.338017},
{"__type": "VEMaps.PinData","Title": "ECOLE POLYVALENTE 20 RUE ETIENNE MARCEL","Name": "","Description": "","Latitude":48.8641239,"Longitude": 2.3483981},
{"__type": "VEMaps.PinData","Title": "ECOLE POLYVALENTE 5 RUE BEAUREGARD","Name": "","Description": "","Latitude":48.8692652,"Longitude": 2.3483438},
{"__type": "VEMaps.PinData","Title": "MAIRIE DU 2E ARRONDISSEMENT","Name": "","Description": "","Latitude":48.866806,"Longitude": 2.3403472},
{"__type": "VEMaps.PinData","Title": "MAISON DES ASSOCIATIONS RUE GRENETA","Name": "","Description": "","Latitude":48.8650784,"Longitude": 2.3506374},
{"__type": "VEMaps.PinData","Title": "ECOLE MATERNELLE 25 RUE CHAPON","Name": "","Description": "","Latitude":48.8642519,"Longitude": 2.3551473},
{"__type": "VEMaps.PinData","Title": "ECOLE MATERNELLE 5 RUE BRANTOME","Name": "","Description": "","Latitude":48.8618792,"Longitude": 2.3527998},
{"__type": "VEMaps.PinData","Title": "ECOLE MATERNELLE 52 RUE TURENNE","Name": "","Description": "","Latitude":48.8583946,"Longitude": 2.364506},
{"__type": "VEMaps.PinData","Title": "ECOLE MATERNELLE 6 RUE PAUL DUBOIS","Name": "","Description": "","Latitude":48.8656045,"Longitude": 2.3616199},
{"__type": "VEMaps.PinData","Title": "ECOLE MATERNELLE 7 RUE PERLE","Name": "","Description": "","Latitude":48.860169,"Longitude": 2.360188},
{"__type": "VEMaps.PinData","Title": "ECOLE ÉLÉMENTAIRE 3 RUE BERANGER","Name": "","Description": "","Latitude":48.8650843,"Longitude": 2.3642931},
{"__type": "VEMaps.PinData","Title": "ECOLE ÉLÉMENTAIRE 54 RUE TURENNE","Name": "","Description": "","Latitude":48.8586081,"Longitude": 2.3647036},
{"__type": "VEMaps.PinData","Title": "ECOLE ÉLÉMENTAIRE 6 RUE VAUCANSON","Name": "","Description": "","Latitude":48.8670651,"Longitude": 2.3567355},
{"__type": "VEMaps.PinData","Title": "ECOLE ÉLÉMENTAIRE 8 RUE VERTUS","Name": "","Description": "","Latitude":48.8636192,"Longitude": 2.3574791},
{"__type": "VEMaps.PinData","Title": "ECOLE ÉLÉMENTAIRE 10 B RUE QUATRE FILS","Name": "","Description": "","Latitude":48.8634799,"Longitude": 2.3591145},
{"__type": "VEMaps.PinData","Title": "ECOLE POLYVALENTE 211 RUE SAINT-MARTIN","Name": "","Description": "","Latitude":48.863356,"Longitude": 2.35256},
{"__type": "VEMaps.PinData","Title": "MAIRIE DU 3E ARRONDISSEMENT","Name": "","Description": "","Latitude":48.8637558,"Longitude": 2.3613364},
{"__type": "VEMaps.PinData","Title": "MAISON DES ASSOCIATIONS DU 3ÈME ARRONDISSEMENT MADELEINE REBERIOUX","Name": "","Description": "","Latitude":48.8640521,"Longitude": 2.3623013},
{"__type": "VEMaps.PinData","Title": "SALLES ASSOCIATIVES SILVA MONFORT","Name": "","Description": "","Latitude":48.8577078,"Longitude": 2.3607303},
{"__type": "VEMaps.PinData","Title": "ECOLE MATERNELLE 12 PL VOSGES","Name": "","Description": "","Latitude":48.8551664,"Longitude": 2.3663657},
{"__type": "VEMaps.PinData","Title": "ECOLE MATERNELLE 18 RUE POULLETIER","Name": "","Description": "","Latitude":48.8516315,"Longitude": 2.3585374},
{"__type": "VEMaps.PinData","Title": "ECOLE MATERNELLE 4 RUE FAUCONNIER","Name": "","Description": "","Latitude":48.8537107,"Longitude": 2.3596707},
{"__type": "VEMaps.PinData","Title": "ECOLE MATERNELLE 40 RUE ARCHIVES","Name": "","Description": "","Latitude":48.8590855,"Longitude": 2.3558647},
{"__type": "VEMaps.PinData","Title": "ECOLE ÉLÉMENTAIRE 9 RUE MOUSSY","Name": "","Description": "","Latitude":48.858459,"Longitude": 2.355342},
{"__type": "VEMaps.PinData","Title": "ECOLE ÉLÉMENTAIRE 15 RUE NEUVE SAINT-PIERRE","Name": "","Description": "","Latitude":48.8538891,"Longitude": 2.3631323},
{"__type": "VEMaps.PinData","Title": "ECOLE ÉLÉMENTAIRE 16 RUE RENARD","Name": "","Description": "","Latitude":48.8591489,"Longitude": 2.3534007},
{"__type": "VEMaps.PinData","Title": "ECOLE ÉLÉMENTAIRE 21 RUE DES TOURNELLES","Name": "","Description": "","Latitude":48.8546661,"Longitude": 2.3673315},
{"__type": "VEMaps.PinData","Title": "ECOLE ÉLÉMENTAIRE 21 RUE SAINT-LOUIS EN L'ILE","Name": "","Description": "","Latitude":48.8515183,"Longitude": 2.3573375},
{"__type": "VEMaps.PinData","Title": "ECOLE ÉLÉMENTAIRE 22 RUE AVE MARIA","Name": "","Description": "","Latitude":48.8526475,"Longitude": 2.3605469},
{"__type": "VEMaps.PinData","Title": "ECOLE POLYVALENTE 10 RUE HOSPITALIERES SAINT-GERVAIS","Name": "","Description": "","Latitude":48.8580814,"Longitude": 2.3590459},
{"__type": "VEMaps.PinData","Title": "ECOLE POLYVALENTE 11 RUE SAINT-MERRI","Name": "","Description": "","Latitude":48.8593385,"Longitude": 2.3529557},
{"__type": "VEMaps.PinData","Title": "MAIRIE DU 4E ARRONDISSEMENT","Name": "","Description": "","Latitude":48.8559279,"Longitude": 2.3553172},
{"__type": "VEMaps.PinData","Title": "ANNEXE MAIRIE D'ARRONDISSEMENT DU 4E BARRES","Name": "","Description": "","Latitude":48.8556373,"Longitude": 2.3555237},
{"__type": "VEMaps.PinData","Title": "MAISON DES ASSOCIATIONS 30 BD HENRI IV","Name": "","Description": "","Latitude":48.8521964,"Longitude": 2.3659378},
{"__type": "VEMaps.PinData","Title": "ESPACE D’ANIMATION DES BLANCS MANTEAUX","Name": "","Description": "","Latitude":48.8582394,"Longitude": 2.3583897},
{"__type": "VEMaps.PinData","Title": "LOCAL DU CONSEIL DE LA JEUNESSE RUE FRANCOIS MIRON","Name": "","Description": "","Latitude":48.8558984,"Longitude": 2.3554569},
{"__type": "VEMaps.PinData","Title": "ECOLE MATERNELLE 10 RUE SOMMERARD","Name": "","Description": "","Latitude":48.8498332,"Longitude": 2.3471668},
{"__type": "VEMaps.PinData","Title": "ECOLE MATERNELLE 15 BIS RUE BUFFON","Name": "","Description": "","Latitude":48.8425674,"Longitude": 2.3619117},
{"__type": "VEMaps.PinData","Title": "ECOLE MATERNELLE 22 RUE LYONNAIS","Name": "","Description": "","Latitude":48.8385062,"Longitude": 2.3464906},
{"__type": "VEMaps.PinData","Title": "ECOLE MATERNELLE 23 RUE CUJAS","Name": "","Description": "","Latitude":48.8480896,"Longitude": 2.3419078},
{"__type": "VEMaps.PinData","Title": "ECOLE MATERNELLE 242 RUE SAINT-JACQUES","Name": "","Description": "","Latitude":48.8441489,"Longitude": 2.3419384},
{"__type": "VEMaps.PinData","Title": "ECOLE MATERNELLE 27 RUE POISSY","Name": "","Description": "","Latitude":48.8486511,"Longitude": 2.3523252},
{"__type": "VEMaps.PinData","Title": "ECOLE MATERNELLE 29 RUE MOUFFETARD","Name": "","Description": "","Latitude":48.8440089,"Longitude": 2.3494211},
{"__type": "VEMaps.PinData","Title": "ECOLE MATERNELLE 97 RUE MOUFFETARD","Name": "","Description": "","Latitude":48.8414567,"Longitude": 2.3496637},
{"__type": "VEMaps.PinData","Title": "ECOLE ÉLÉMENTAIRE 41 RUE ARBALETE","Name": "","Description": "","Latitude":48.8394534,"Longitude": 2.3465127},
{"__type": "VEMaps.PinData","Title": "ANNEXE ECOLE ÉLÉMENTAIRE DU 21 RUE BUFFON","Name": "","Description": "","Latitude":48.8428084,"Longitude": 2.3623568},
{"__type": "VEMaps.PinData","Title": "ECOLE ÉLÉMENTAIRE 10 RUE ROLLIN","Name": "","Description": "","Latitude":48.8447842,"Longitude": 2.3506583},
{"__type": "VEMaps.PinData","Title": "ECOLE ÉLÉMENTAIRE 14 RUE VICTOR COUSIN","Name": "","Description": "","Latitude":48.8475443,"Longitude": 2.342163},
{"__type": "VEMaps.PinData","Title": "ECOLE ÉLÉMENTAIRE 19 RUE BOULANGERS","Name": "","Description": "","Latitude":48.8458415,"Longitude": 2.353043},
{"__type": "VEMaps.PinData","Title": "ECOLE ÉLÉMENTAIRE 2 RUE PIERRE BROSSOLETTE","Name": "","Description": "","Latitude":48.84252,"Longitude": 2.346568},
{"__type": "VEMaps.PinData","Title": "ECOLE ÉLÉMENTAIRE 21 RUE BUFFON","Name": "","Description": "","Latitude":48.8424743,"Longitude": 2.3611549},
{"__type": "VEMaps.PinData","Title": "ECOLE ÉLÉMENTAIRE 21 RUE PONTOISE","Name": "","Description": "","Latitude":48.8487275,"Longitude": 2.3512113},
{"__type": "VEMaps.PinData","Title": "ECOLE ÉLÉMENTAIRE 24 RUE CARDINAL LEMOINE","Name": "","Description": "","Latitude":48.848239,"Longitude": 2.3532343},
{"__type": "VEMaps.PinData","Title": "ECOLE ÉLÉMENTAIRE 250 B RUE SAINT-JACQUES","Name": "","Description": "","Latitude":48.8438094,"Longitude": 2.3416932},
{"__type": "VEMaps.PinData","Title": "ECOLE ÉLÉMENTAIRE 28 RUE SAINT-JACQUES","Name": "","Description": "","Latitude":48.8513967,"Longitude": 2.3458247},
{"__type": "VEMaps.PinData","Title": "MAIRIE DU 5E ARRONDISSEMENT","Name": "","Description": "","Latitude":48.8465518,"Longitude": 2.3444932},
{"__type": "VEMaps.PinData","Title": "MAISON DES ASSOCIATIONS 4 RUE DES ARENES","Name": "","Description": "","Latitude":48.845088,"Longitude": 2.3542504},
{"__type": "VEMaps.PinData","Title": "ECOLE MATERNELLE 16 RUE SAINT-BENOIT","Name": "","Description": "","Latitude":48.854822,"Longitude": 2.3328985},
{"__type": "VEMaps.PinData","Title": "ECOLE MATERNELLE 39 RUE SAINT-ANDRE DES ARTS","Name": "","Description": "","Latitude":48.8532887,"Longitude": 2.3413316},
{"__type": "VEMaps.PinData","Title": "ECOLE MATERNELLE 40 RUE MADAME","Name": "","Description": "","Latitude":48.8493024,"Longitude": 2.3316207},
{"__type": "VEMaps.PinData","Title": "ECOLE MATERNELLE 6 RUE LITTRE","Name": "","Description": "","Latitude":48.8455047,"Longitude": 2.3238075},
{"__type": "VEMaps.PinData","Title": "ECOLE ÉLÉMENTAIRE 42 RUE MADAME","Name": "","Description": "","Latitude":48.8491555,"Longitude": 2.3316399},
{"__type": "VEMaps.PinData","Title": "ECOLE ÉLÉMENTAIRE 6 RUE LITTRE","Name": "","Description": "","Latitude":48.8455047,"Longitude": 2.3238075},
{"__type": "VEMaps.PinData","Title": "ECOLE ÉLÉMENTAIRE 7 RUE JARDINET","Name": "","Description": "","Latitude":48.8526538,"Longitude": 2.3400269},
{"__type": "VEMaps.PinData","Title": "ECOLE ÉLÉMENTAIRE 9 RUE VAUGIRARD","Name": "","Description": "","Latitude":48.8489345,"Longitude": 2.3398368},
{"__type": "VEMaps.PinData","Title": "ECOLE ÉLÉMENTAIRE 12 RUE SAINT-BENOIT","Name": "","Description": "","Latitude":48.8551627,"Longitude": 2.3331475},
{"__type": "VEMaps.PinData","Title": "MAIRIE DU 6E ARRONDISSEMENT","Name": "","Description": "","Latitude":48.8505347,"Longitude": 2.3327727},
{"__type": "VEMaps.PinData","Title": "ECOLE ÉLÉMENTAIRE 14 RUE EBLE","Name": "","Description": "","Latitude":48.8489372,"Longitude": 2.3128817},
{"__type": "VEMaps.PinData","Title": "ECOLE POLYVALENTE 27 RUE LAS CASES","Name": "","Description": "","Latitude":48.8589413,"Longitude": 2.3187603},
{"__type": "VEMaps.PinData","Title": "MAIRIE DU 7E ARRONDISSEMENT","Name": "","Description": "","Latitude":48.8568258,"Longitude": 2.3200337},
{"__type": "VEMaps.PinData","Title": "MAISON DES ASSOCIATIONS 4 RUE AMELIE","Name": "","Description": "","Latitude":48.8594114,"Longitude": 2.3072933},
{"__type": "VEMaps.PinData","Title": "ECOLE MATERNELLE 117 B RUE SAINT-DOMINIQUE","Name": "","Description": "","Latitude":48.8590216,"Longitude": 2.3042704},
{"__type": "VEMaps.PinData","Title": "ECOLE MATERNELLE 14 RUE EBLE","Name": "","Description": "","Latitude":48.8489372,"Longitude": 2.3128817},
{"__type": "VEMaps.PinData","Title": "ECOLE MATERNELLE 17 RUE VERNEUIL","Name": "","Description": "","Latitude":48.8575432,"Longitude": 2.3304999},
{"__type": "VEMaps.PinData","Title": "ECOLE MATERNELLE 28 AV RAPP","Name": "","Description": "","Latitude":48.8586928,"Longitude": 2.3003134},
{"__type": "VEMaps.PinData","Title": "ECOLE MATERNELLE 48 RUE VANEAU","Name": "","Description": "","Latitude":48.8511904,"Longitude": 2.3191107},
{"__type": "VEMaps.PinData","Title": "ECOLE MATERNELLE 8 RUE CHOMEL","Name": "","Description": "","Latitude":48.8521226,"Longitude": 2.3255137},
{"__type": "VEMaps.PinData","Title": "ECOLE ÉLÉMENTAIRE 42 AV DUQUESNE","Name": "","Description": "","Latitude":48.8494215,"Longitude": 2.3132936},
{"__type": "VEMaps.PinData","Title": "ECOLE ÉLÉMENTAIRE 8 RUE CHOMEL","Name": "","Description": "","Latitude":48.8521226,"Longitude": 2.3255137},
{"__type": "VEMaps.PinData","Title": "ECOLE ÉLÉMENTAIRE 1 RUE GENERAL CAMOU","Name": "","Description": "","Latitude":48.858841,"Longitude": 2.2994949},
{"__type": "VEMaps.PinData","Title": "ECOLE ÉLÉMENTAIRE 10 AV LA MOTTE-PICQUET","Name": "","Description": "","Latitude":48.8569082,"Longitude": 2.309097},
{"__type": "VEMaps.PinData","Title": "ECOLE MATERNELLE 12 RUE CLAUZEL","Name": "","Description": "","Latitude":48.8791636,"Longitude": 2.3385549},
{"__type": "VEMaps.PinData","Title": "ECOLE MATERNELLE 22 RUE ROCHECHOUART","Name": "","Description": "","Latitude":48.8779178,"Longitude": 2.3448663},
{"__type": "VEMaps.PinData","Title": "ECOLE MATERNELLE 30 RUE RODIER","Name": "","Description": "","Latitude":48.8786285,"Longitude": 2.3429776},
{"__type": "VEMaps.PinData","Title": "ECOLE MATERNELLE 34 RUE BRUXELLES","Name": "","Description": "","Latitude":48.8829284,"Longitude": 2.328718},
{"__type": "VEMaps.PinData","Title": "ECOLE MATERNELLE 34 RUE BUFFAULT","Name": "","Description": "","Latitude":48.8764446,"Longitude": 2.3424611},
{"__type": "VEMaps.PinData","Title": "ECOLE MATERNELLE 5 RUE MILTON","Name": "","Description": "","Latitude":48.8775761,"Longitude": 2.3407478},
{"__type": "VEMaps.PinData","Title": "ECOLE MATERNELLE 68 RUE DE ROCHECHOUART","Name": "","Description": "","Latitude":48.8813221,"Longitude": 2.3465635},
{"__type": "VEMaps.PinData","Title": "ECOLE MATERNELLE 9 BIS RUE BLANCHE","Name": "","Description": "","Latitude":48.8779855,"Longitude": 2.3318101},
{"__type": "VEMaps.PinData","Title": "ECOLE ÉLÉMENTAIRE 32 RUE BRUXELLES","Name": "","Description": "","Latitude":48.882955,"Longitude": 2.3288386},
{"__type": "VEMaps.PinData","Title": "ECOLE ÉLÉMENTAIRE 32 RUE BUFFAULT","Name": "","Description": "","Latitude":48.8763052,"Longitude": 2.3423889},
{"__type": "VEMaps.PinData","Title": "ECOLE ÉLÉMENTAIRE 45 RUE DE LA TOUR D’AUVERGNE","Name": "","Description": "","Latitude":48.8797379,"Longitude": 2.3409384},
{"__type": "VEMaps.PinData","Title": "ECOLE ÉLÉMENTAIRE 5 RUE MILTON","Name": "","Description": "","Latitude":48.8775761,"Longitude": 2.3407478},
{"__type": "VEMaps.PinData","Title": "ECOLE ÉLÉMENTAIRE 9 RUE BLANCHE","Name": "","Description": "","Latitude":48.8779855,"Longitude": 2.3318101},
{"__type": "VEMaps.PinData","Title": "ECOLE ÉLÉMENTAIRE 12 RUE CHAPTAL","Name": "","Description": "","Latitude":48.8808478,"Longitude": 2.3335536},
{"__type": "VEMaps.PinData","Title": "ECOLE ÉLÉMENTAIRE 15 RUE TURGOT","Name": "","Description": "","Latitude":48.8803593,"Longitude": 2.3452353},
{"__type": "VEMaps.PinData","Title": "ECOLE ÉLÉMENTAIRE 16 RUE VICTOIRE","Name": "","Description": "","Latitude":48.8751663,"Longitude": 2.3392258},
{"__type": "VEMaps.PinData","Title": "ECOLE ÉLÉMENTAIRE 21 RUE MILTON","Name": "","Description": "","Latitude":48.8787605,"Longitude": 2.3411733},
{"__type": "VEMaps.PinData","Title": "ECOLE ELEMENTAIRE 10 RUE DE CLICHY","Name": "","Description": "","Latitude":48.8777392,"Longitude": 2.3305537},
{"__type": "VEMaps.PinData","Title": "MAIRIE DU 9E ARRONDISSEMENT","Name": "","Description": "","Latitude":48.8726532,"Longitude": 2.3404013},
{"__type": "VEMaps.PinData","Title": "ECOLE MATERNELLE 11 RUE LEON SCHWARTZENBERG","Name": "","Description": "","Latitude":48.8752362,"Longitude": 2.3546508},
{"__type": "VEMaps.PinData","Title": "ECOLE MATERNELLE 155 AV PARMENTIER","Name": "","Description": "","Latitude":48.8716858,"Longitude": 2.3697674},
{"__type": "VEMaps.PinData","Title": "ECOLE MATERNELLE 18 RUE HOPITAL SAINT-LOUIS","Name": "","Description": "","Latitude":48.8755343,"Longitude": 2.3645734},
{"__type": "VEMaps.PinData","Title": "ECOLE MATERNELLE 20 RUE PARADIS","Name": "","Description": "","Latitude":48.8748395,"Longitude": 2.3537323},
{"__type": "VEMaps.PinData","Title": "ECOLE MATERNELLE 23 PAS RECOLLETS","Name": "","Description": "","Latitude":48.8747249,"Longitude": 2.3607992},
{"__type": "VEMaps.PinData","Title": "ECOLE MATERNELLE 28 RUE ECLUSES SAINT-MARTIN","Name": "","Description": "","Latitude":48.8773714,"Longitude": 2.3662381},
{"__type": "VEMaps.PinData","Title": "ECOLE MATERNELLE 3 RUE BELZUNCE","Name": "","Description": "","Latitude":48.8792296,"Longitude": 2.352857},
{"__type": "VEMaps.PinData","Title": "ECOLE MATERNELLE 39 RUE AQUEDUC","Name": "","Description": "","Latitude":48.8825255,"Longitude": 2.364011},
{"__type": "VEMaps.PinData","Title": "ECOLE MATERNELLE 4 RUE PIERRE BULLET","Name": "","Description": "","Latitude":48.8716312,"Longitude": 2.3580968},
{"__type": "VEMaps.PinData","Title": "ECOLE MATERNELLE 49 RUE LOUIS BLANC","Name": "","Description": "","Latitude":48.8824236,"Longitude": 2.3626745},
{"__type": "VEMaps.PinData","Title": "ECOLE MATERNELLE 5 RUE BOY-ZELENSKI","Name": "","Description": "","Latitude":48.8767174,"Longitude": 2.3678892},
{"__type": "VEMaps.PinData","Title": "ECOLE MATERNELLE 6 RUE LEGOUVE","Name": "","Description": "","Latitude":48.8722549,"Longitude": 2.3622551},
{"__type": "VEMaps.PinData","Title": "ECOLE MATERNELLE 9 RUE MARTEL","Name": "","Description": "","Latitude":48.8739648,"Longitude": 2.3529123},
{"__type": "VEMaps.PinData","Title": "ECOLE ÉLÉMENTAIRE 3 RUE BELZUNCE","Name": "","Description": "","Latitude":48.8792296,"Longitude": 2.352857},
{"__type": "VEMaps.PinData","Title": "ECOLE ÉLÉMENTAIRE 33 AV CLAUDE VELLEFAUX","Name": "","Description": "","Latitude":48.8768706,"Longitude": 2.3701514},
{"__type": "VEMaps.PinData","Title": "ECOLE ÉLÉMENTAIRE 34 RUE FAUBOURG SAINT-DENIS","Name": "","Description": "","Latitude":48.871119,"Longitude": 2.353676},
{"__type": "VEMaps.PinData","Title": "ECOLE ÉLÉMENTAIRE 39 RUE AQUEDUC","Name": "","Description": "","Latitude":48.8825255,"Longitude": 2.364011},
{"__type": "VEMaps.PinData","Title": "ECOLE ÉLÉMENTAIRE 49 BIS RUE LOUIS BLANC","Name": "","Description": "","Latitude":48.8824236,"Longitude": 2.3626745},
{"__type": "VEMaps.PinData","Title": "ECOLE ÉLÉMENTAIRE 9 RUE MARTEL","Name": "","Description": "","Latitude":48.8739648,"Longitude": 2.3529123},
{"__type": "VEMaps.PinData","Title": "ECOLE ÉLÉMENTAIRE 5 RUE HOPITAL SAINT LOUIS","Name": "","Description": "","Latitude":48.8748887,"Longitude": 2.3654847},
{"__type": "VEMaps.PinData","Title": "ÉCOLE ÉLÉMENTAIRE 21 RUE SAMBRE ET MEUSE","Name": "","Description": "","Latitude":48.8748568,"Longitude": 2.3717843},
{"__type": "VEMaps.PinData","Title": "ECOLE ELEMENTAIRE 41 RUE DE CHABROL","Name": "","Description": "","Latitude":48.8768303,"Longitude": 2.3529625},
{"__type": "VEMaps.PinData","Title": "ECOLE ÉLÉMENTAIRE 10 RUE EUGENE VARLIN","Name": "","Description": "","Latitude":48.8779188,"Longitude": 2.3651836},
{"__type": "VEMaps.PinData","Title": "ECOLE ÉLÉMENTAIRE 159 AV PARMENTIER","Name": "","Description": "","Latitude":48.8717733,"Longitude": 2.3698829},
{"__type": "VEMaps.PinData","Title": "ECOLE ÉLÉMENTAIRE 17 RUE MARSEILLE","Name": "","Description": "","Latitude":48.8717618,"Longitude": 2.3638557},
{"__type": "VEMaps.PinData","Title": "ECOLE ÉLÉMENTAIRE 19 PAS RECOLLETS","Name": "","Description": "","Latitude":48.8741639,"Longitude": 2.3605305},
{"__type": "VEMaps.PinData","Title": "ECOLE ÉLÉMENTAIRE 200 RUE SAINT-MAUR","Name": "","Description": "","Latitude":48.8724317,"Longitude": 2.3715126},
{"__type": "VEMaps.PinData","Title": "ECOLE ÉLÉMENTAIRE 216 BIS RUE LAFAYETTE","Name": "","Description": "","Latitude":48.8818896,"Longitude": 2.3672043},
{"__type": "VEMaps.PinData","Title": "ECOLE POLYVALENTE 16 RUE VICQ D'AZIR","Name": "","Description": "","Latitude":48.8760763,"Longitude": 2.3705049},
{"__type": "VEMaps.PinData","Title": "ECOLE POLYVALENTE 15 RUE LANCRY","Name": "","Description": "","Latitude":48.8695394,"Longitude": 2.3603311},
{"__type": "VEMaps.PinData","Title": "MAIRIE DU 10E ARRONDISSEMENT","Name": "","Description": "","Latitude":48.871749,"Longitude": 2.3572353},
{"__type": "VEMaps.PinData","Title": "MAISON DES ASSOCIATIONS QUAI DE VALMY","Name": "","Description": "","Latitude":48.8816139,"Longitude": 2.3685937},
{"__type": "VEMaps.PinData","Title": "CONSERVATOIRE MUNICIPAL CHARLES MUNCH","Name": "","Description": "","Latitude":48.8610417,"Longitude": 2.3848833},
{"__type": "VEMaps.PinData","Title": "ECOLE MATERNELLE 10 BIS RUE DURANTI","Name": "","Description": "","Latitude":48.8605628,"Longitude": 2.383659},
{"__type": "VEMaps.PinData","Title": "ECOLE MATERNELLE 11 BIS AV PARMENTIER","Name": "","Description": "","Latitude":48.859921,"Longitude": 2.3789006},
{"__type": "VEMaps.PinData","Title": "ECOLE MATERNELLE 111 AV PARMENTIER","Name": "","Description": "","Latitude":48.86798,"Longitude": 2.372282},
{"__type": "VEMaps.PinData","Title": "ECOLE MATERNELLE 13 BD RICHARD LENOIR","Name": "","Description": "","Latitude":48.8560456,"Longitude": 2.3700311},
{"__type": "VEMaps.PinData","Title": "ECOLE MATERNELLE 14 RUE MERLIN","Name": "","Description": "","Latitude":48.8600489,"Longitude": 2.3859133},
{"__type": "VEMaps.PinData","Title": "ECOLE MATERNELLE 144 RUE ROQUETTE","Name": "","Description": "","Latitude":48.8580805,"Longitude": 2.3822529},
{"__type": "VEMaps.PinData","Title": "ECOLE MATERNELLE 18 RUE FAIDHERBE","Name": "","Description": "","Latitude":48.8515538,"Longitude": 2.3839637},
{"__type": "VEMaps.PinData","Title": "ECOLE MATERNELLE 19 RUE ALPHONSE BAUDIN","Name": "","Description": "","Latitude":48.8612117,"Longitude": 2.3700873},
{"__type": "VEMaps.PinData","Title": "ECOLE MATERNELLE 2 PAS BESLAY","Name": "","Description": "","Latitude":48.862913,"Longitude": 2.3731441},
{"__type": "VEMaps.PinData","Title": "ECOLE MATERNELLE 31 RUE GODEFROY CAVAIGNAC","Name": "","Description": "","Latitude":48.8557985,"Longitude": 2.38075},
{"__type": "VEMaps.PinData","Title": "ECOLE MATERNELLE 39 RUE SAINT-BERNARD","Name": "","Description": "","Latitude":48.8531664,"Longitude": 2.3806465},
{"__type": "VEMaps.PinData","Title": "ECOLE MATERNELLE 39 RUE TROIS BORNES","Name": "","Description": "","Latitude":48.867261,"Longitude": 2.3744773},
{"__type": "VEMaps.PinData","Title": "ECOLE MATERNELLE 4 BIS RUE PRESENTATION","Name": "","Description": "","Latitude":48.8708508,"Longitude": 2.3773653},
{"__type": "VEMaps.PinData","Title": "ECOLE MATERNELLE 4 PAS BULLOURDE","Name": "","Description": "","Latitude":48.8545008,"Longitude": 2.3763784},
{"__type": "VEMaps.PinData","Title": "ECOLE MATERNELLE 44 RUE EMILE LEPEU","Name": "","Description": "","Latitude":48.8567157,"Longitude": 2.3882484},
{"__type": "VEMaps.PinData","Title": "ECOLE MATERNELLE 5 IMP BALEINE","Name": "","Description": "","Latitude":48.8672143,"Longitude": 2.3777051},
{"__type": "VEMaps.PinData","Title": "ECOLE MATERNELLE 54 RUE SERVAN","Name": "","Description": "","Latitude":48.8630565,"Longitude": 2.3818251},
{"__type": "VEMaps.PinData","Title": "ECOLE MATERNELLE 6 AV BOUVINES","Name": "","Description": "","Latitude":48.8502712,"Longitude": 2.3965675},
{"__type": "VEMaps.PinData","Title": "ECOLE MATERNELLE 7 PAS PIVER","Name": "","Description": "","Latitude":48.8705385,"Longitude": 2.3744658},
{"__type": "VEMaps.PinData","Title": "ECOLE MATERNELLE 9 RUE POPINCOURT","Name": "","Description": "","Latitude":48.8573519,"Longitude": 2.3774323},
{"__type": "VEMaps.PinData","Title": "ECOLE ÉLÉMENTAIRE 31 RUE SAINT-BERNARD","Name": "","Description": "","Latitude":48.8524695,"Longitude": 2.3810741},
{"__type": "VEMaps.PinData","Title": "ECOLE ÉLÉMENTAIRE 35 RUE GODEFROY CAVAIGNAC","Name": "","Description": "","Latitude":48.8559867,"Longitude": 2.3805733},
{"__type": "VEMaps.PinData","Title": "ECOLE ÉLÉMENTAIRE 39 RUE ALEXANDRE DUMAS","Name": "","Description": "","Latitude":48.8537046,"Longitude": 2.3932983},
{"__type": "VEMaps.PinData","Title": "ECOLE ÉLÉMENTAIRE 39 RUE TROIS BORNES","Name": "","Description": "","Latitude":48.867261,"Longitude": 2.3744773},
{"__type": "VEMaps.PinData","Title": "ECOLE ÉLÉMENTAIRE 4 AV BOUVINES","Name": "","Description": "","Latitude":48.8497889,"Longitude": 2.3962469},
{"__type": "VEMaps.PinData","Title": "ECOLE ÉLÉMENTAIRE 4 RUE KELLER","Name": "","Description": "","Latitude":48.8531901,"Longitude": 2.3769938},
{"__type": "VEMaps.PinData","Title": "ECOLE ÉLÉMENTAIRE 98 AV REPUBLIQUE","Name": "","Description": "","Latitude":48.8637882,"Longitude": 2.382271},
{"__type": "VEMaps.PinData","Title": "ECOLE ÉLÉMENTAIRE 75 BD BELLEVILLE","Name": "","Description": "","Latitude":48.8710861,"Longitude": 2.3777411},
{"__type": "VEMaps.PinData","Title": "ECOLE ÉLÉMENTAIRE 1 RUE PIHET","Name": "","Description": "","Latitude":48.8633534,"Longitude": 2.3740441},
{"__type": "VEMaps.PinData","Title": "ECOLE ÉLÉMENTAIRE 100 AV REPUBLIQUE","Name": "","Description": "","Latitude":48.8637183,"Longitude": 2.3826322},
{"__type": "VEMaps.PinData","Title": "ECOLE ÉLÉMENTAIRE 109 AV PARMENTIER","Name": "","Description": "","Latitude":48.8675891,"Longitude": 2.3726824},
{"__type": "VEMaps.PinData","Title": "ECOLE ÉLÉMENTAIRE 11 BIS AV PARMENTIER","Name": "","Description": "","Latitude":48.859921,"Longitude": 2.3789006},
{"__type": "VEMaps.PinData","Title": "ECOLE ÉLÉMENTAIRE 13 RUE FROMENT","Name": "","Description": "","Latitude":48.8573092,"Longitude": 2.3725696},
{"__type": "VEMaps.PinData","Title": "ECOLE ÉLÉMENTAIRE 14 RUE TITON","Name": "","Description": "","Latitude":48.8514217,"Longitude": 2.3865808},
{"__type": "VEMaps.PinData","Title": "ECOLE ÉLÉMENTAIRE 17 RUE ALPHONSE BAUDIN","Name": "","Description": "","Latitude":48.8610379,"Longitude": 2.3701015},
{"__type": "VEMaps.PinData","Title": "ECOLE ÉLÉMENTAIRE 22 RUE SAINT-MAUR","Name": "","Description": "","Latitude":48.8604509,"Longitude": 2.3819177},
{"__type": "VEMaps.PinData","Title": "ECOLE ÉLÉMENTAIRE 24 RUE SAINT-SEBASTIEN","Name": "","Description": "","Latitude":48.8611637,"Longitude": 2.3695317},
{"__type": "VEMaps.PinData","Title": "ECOLE ÉLÉMENTAIRE 29 RUE SERVAN","Name": "","Description": "","Latitude":48.8608215,"Longitude": 2.3829721},
{"__type": "VEMaps.PinData","Title": "MAIRIE DU 11E ARRONDISSEMENT","Name": "","Description": "","Latitude":48.8579146,"Longitude": 2.3794361},
{"__type": "VEMaps.PinData","Title": "ESPACE JEAN AICARD ","Name": "","Description": "","Latitude":48.8650914,"Longitude": 2.3814948},
{"__type": "VEMaps.PinData","Title": "ECOLE MATERNELLE 2 PL LACHAMBEAUDIE","Name": "","Description": "","Latitude":48.8356835,"Longitude": 2.3860976},
{"__type": "VEMaps.PinData","Title": "ECOLE MATERNELLE 253 BIS AV DAUMESNIL","Name": "","Description": "","Latitude":48.8374343,"Longitude": 2.4020982},
{"__type": "VEMaps.PinData","Title": "ECOLE MATERNELLE 28 RUE BRECHE AUX LOUPS","Name": "","Description": "","Latitude":48.8374155,"Longitude": 2.3940482},
{"__type": "VEMaps.PinData","Title": "ECOLE MATERNELLE 33 RUE POMMARD","Name": "","Description": "","Latitude":48.8365031,"Longitude": 2.3837972},
{"__type": "VEMaps.PinData","Title": "ECOLE MATERNELLE 40 RUE JACQUES HILLAIRET","Name": "","Description": "","Latitude":48.8433052,"Longitude": 2.3890139},
{"__type": "VEMaps.PinData","Title": "ECOLE MATERNELLE 40 RUE MEUNIERS","Name": "","Description": "","Latitude":48.8348047,"Longitude": 2.396586},
{"__type": "VEMaps.PinData","Title": "ECOLE MATERNELLE 41 RUE TRAVERSIERE","Name": "","Description": "","Latitude":48.8475296,"Longitude": 2.3732337},
{"__type": "VEMaps.PinData","Title": "ECOLE MATERNELLE 42 AV DOCTEUR ARNOLD NETTER","Name": "","Description": "","Latitude":48.8437744,"Longitude": 2.4056468},
{"__type": "VEMaps.PinData","Title": "ECOLE MATERNELLE 45 RUE PICPUS","Name": "","Description": "","Latitude":48.8436059,"Longitude": 2.3966024},
{"__type": "VEMaps.PinData","Title": "ECOLE MATERNELLE 56 RUE PICPUS","Name": "","Description": "","Latitude":48.8435512,"Longitude": 2.3966451},
{"__type": "VEMaps.PinData","Title": "ECOLE MATERNELLE 59 RUE REUILLY","Name": "","Description": "","Latitude":48.8457658,"Longitude": 2.3885968},
{"__type": "VEMaps.PinData","Title": "ECOLE MATERNELLE 7 RUE JEAN BOUTON","Name": "","Description": "","Latitude":48.8455267,"Longitude": 2.3769324},
{"__type": "VEMaps.PinData","Title": "ECOLE MATERNELLE 70 AV DAUMESNIL","Name": "","Description": "","Latitude":48.8446802,"Longitude": 2.3804037},
{"__type": "VEMaps.PinData","Title": "ECOLE MATERNELLE 8 AV LAMORICIERE","Name": "","Description": "","Latitude":48.8447138,"Longitude": 2.4120987},
{"__type": "VEMaps.PinData","Title": "ECOLE ÉLÉMENTAIRE 315 RUE CHARENTON","Name": "","Description": "","Latitude":48.8335845,"Longitude": 2.3951674},
{"__type": "VEMaps.PinData","Title": "ECOLE ÉLÉMENTAIRE 4 RUE BIGNON","Name": "","Description": "","Latitude":48.8404834,"Longitude": 2.3886911},
{"__type": "VEMaps.PinData","Title": "ECOLE ÉLÉMENTAIRE 4 RUE POMMARD","Name": "","Description": "","Latitude":48.8356418,"Longitude": 2.384936},
{"__type": "VEMaps.PinData","Title": "ECOLE ÉLÉMENTAIRE 51 RUE CHARENTON","Name": "","Description": "","Latitude":48.8510506,"Longitude": 2.3727372},
{"__type": "VEMaps.PinData","Title": "ECOLE ÉLÉMENTAIRE 52 RUE WATTIGNIES","Name": "","Description": "","Latitude":48.8355135,"Longitude": 2.3972522},
{"__type": "VEMaps.PinData","Title": "ECOLE ÉLÉMENTAIRE 8 RUE CHARLES BAUDELAIRE","Name": "","Description": "","Latitude":48.8484961,"Longitude": 2.3760687},
{"__type": "VEMaps.PinData","Title": "ECOLE ÉLÉMENTAIRE A 10 AV LAMORICIERE","Name": "","Description": "","Latitude":48.8448293,"Longitude": 2.412405},
{"__type": "VEMaps.PinData","Title": "ECOLE ÉLÉMENTAIRE A 253 TER AV DAUMESNIL","Name": "","Description": "","Latitude":48.8374343,"Longitude": 2.4020982},
{"__type": "VEMaps.PinData","Title": "ECOLE ÉLÉMENTAIRE A 5 RUE JEAN BOUTON","Name": "","Description": "","Latitude":48.8456684,"Longitude": 2.3768131},
{"__type": "VEMaps.PinData","Title": "ECOLE ÉLÉMENTAIRE A 56 RUE PICPUS","Name": "","Description": "","Latitude":48.8435512,"Longitude": 2.3966451},
{"__type": "VEMaps.PinData","Title": "ECOLE ÉLÉMENTAIRE A 57 RUE REUILLY","Name": "","Description": "","Latitude":48.8458217,"Longitude": 2.3885239},
{"__type": "VEMaps.PinData","Title": "ECOLE ÉLÉMENTAIRE B 40 BD DIDEROT","Name": "","Description": "","Latitude":48.8461592,"Longitude": 2.3773753},
{"__type": "VEMaps.PinData","Title": "ECOLE ÉLÉMENTAIRE B 56 RUE PICPUS","Name": "","Description": "","Latitude":48.8435512,"Longitude": 2.3966451},
{"__type": "VEMaps.PinData","Title": "ECOLE ÉLÉMENTAIRE B 57 RUE REUILLY","Name": "","Description": "","Latitude":48.8458217,"Longitude": 2.3885239},
{"__type": "VEMaps.PinData","Title": "ECOLE ÉLÉMENTAIRE B 8 AV LAMORICIERE","Name": "","Description": "","Latitude":48.8447138,"Longitude": 2.4120987},
{"__type": "VEMaps.PinData","Title": "ECOLE ÉLÉMENTAIRE B 83 AV GENERAL MICHEL BIZOT","Name": "","Description": "","Latitude":48.8373918,"Longitude": 2.4035698},
{"__type": "VEMaps.PinData","Title": "ECOLE ÉLÉMENTAIRE 165 RUE BERCY","Name": "","Description": "","Latitude":48.8424635,"Longitude": 2.3753291},
{"__type": "VEMaps.PinData","Title": "ECOLE ÉLÉMENTAIRE 18 RUE BRECHE AUX LOUPS","Name": "","Description": "","Latitude":48.8374256,"Longitude": 2.3940579},
{"__type": "VEMaps.PinData","Title": "ECOLE ÉLÉMENTAIRE 19 RUE MARSOULAN","Name": "","Description": "","Latitude":48.8464223,"Longitude": 2.4031434},
{"__type": "VEMaps.PinData","Title": "ECOLE ÉLÉMENTAIRE 22 RUE GABRIEL LAME","Name": "","Description": "","Latitude":48.8341619,"Longitude": 2.3869135},
{"__type": "VEMaps.PinData","Title": "ECOLE ÉLÉMENTAIRE 27 RUE REUILLY","Name": "","Description": "","Latitude":48.8479979,"Longitude": 2.3864564},
{"__type": "VEMaps.PinData","Title": "ECOLE POLYVALENTE 16 RUE MONTEMPOIVRE","Name": "","Description": "","Latitude":48.8401565,"Longitude": 2.4068883},
{"__type": "VEMaps.PinData","Title": "ECOLE POLYVALENTE GERTY ARCHIMEDE","Name": "","Description": "","Latitude":48.8356308,"Longitude": 2.3869992},
{"__type": "VEMaps.PinData","Title": "MAIRIE DU 12E ARRONDISSEMENT","Name": "","Description": "","Latitude":48.8411363,"Longitude": 2.3888422},
{"__type": "VEMaps.PinData","Title": "MAISON DES ASSOCIATIONS AVENUE DAUMESNIL","Name": "","Description": "","Latitude":48.8406323,"Longitude": 2.392377},
{"__type": "VEMaps.PinData","Title": "ECOLE MATERNELLE (RELAIS) 34 RUE CHARLES MOUREU","Name": "","Description": "","Latitude":48.8286871,"Longitude": 2.3617626},
{"__type": "VEMaps.PinData","Title": "ECOLE MATERNELLE 100 RUE DE LA GLACIERE","Name": "","Description": "","Latitude":48.82986,"Longitude": 2.3429823},
{"__type": "VEMaps.PinData","Title": "ECOLE MATERNELLE 103 RUE CHATEAU DES RENTIERS","Name": "","Description": "","Latitude":48.8280433,"Longitude": 2.3671444},
{"__type": "VEMaps.PinData","Title": "ECOLE MATERNELLE 11 RUE AUGUSTE PERRET","Name": "","Description": "","Latitude":48.8250286,"Longitude": 2.3602955},
{"__type": "VEMaps.PinData","Title": "ECOLE MATERNELLE 11 RUE CROULEBARBE","Name": "","Description": "","Latitude":48.834255,"Longitude": 2.352378},
{"__type": "VEMaps.PinData","Title": "ECOLE MATERNELLE 12 RUE ESPERANCE","Name": "","Description": "","Latitude":48.8267473,"Longitude": 2.3478909},
{"__type": "VEMaps.PinData","Title": "ECOLE MATERNELLE 13 RUE LAHIRE","Name": "","Description": "","Latitude":48.8296691,"Longitude": 2.3663221},
{"__type": "VEMaps.PinData","Title": "ECOLE MATERNELLE 140 RUE LEON-MAURICE NORDMANN","Name": "","Description": "","Latitude":48.8336809,"Longitude": 2.3429566},
{"__type": "VEMaps.PinData","Title": "ECOLE MATERNELLE 15 RUE DOMREMY","Name": "","Description": "","Latitude":48.8303326,"Longitude": 2.3731416},
{"__type": "VEMaps.PinData","Title": "ECOLE MATERNELLE 157 RUE TOLBIAC","Name": "","Description": "","Latitude":48.8260506,"Longitude": 2.3561565},
{"__type": "VEMaps.PinData","Title": "ECOLE MATERNELLE 16 RUE WURTZ","Name": "","Description": "","Latitude":48.8268658,"Longitude": 2.3446572},
{"__type": "VEMaps.PinData","Title": "ECOLE MATERNELLE 17 RUE POINTE D'IVRY","Name": "","Description": "","Latitude":48.822446,"Longitude": 2.3641327},
{"__type": "VEMaps.PinData","Title": "ECOLE MATERNELLE 2 RUE PAUL GERVAIS","Name": "","Description": "","Latitude":48.831594,"Longitude": 2.3476429},
{"__type": "VEMaps.PinData","Title": "ECOLE MATERNELLE 20 RUE PATAY","Name": "","Description": "","Latitude":48.8250905,"Longitude": 2.3755726},
{"__type": "VEMaps.PinData","Title": "ECOLE MATERNELLE 28 AV STEPHEN PICHON","Name": "","Description": "","Latitude":48.8323543,"Longitude": 2.3585341},
{"__type": "VEMaps.PinData","Title": "ECOLE MATERNELLE 71 RUE DUNOIS","Name": "","Description": "","Latitude":48.833887,"Longitude": 2.364246},
{"__type": "VEMaps.PinData","Title": "ECOLE MATERNELLE 8 RUE RICAUT","Name": "","Description": "","Latitude":48.8298148,"Longitude": 2.3615545},
{"__type": "VEMaps.PinData","Title": "ECOLE MATERNELLE 87 RUE BRILLAT-SAVARIN","Name": "","Description": "","Latitude":48.8244137,"Longitude": 2.3427117},
{"__type": "VEMaps.PinData","Title": "ECOLE MATERNELLE 9 RUE FRANC-NOHAIN","Name": "","Description": "","Latitude":48.8213707,"Longitude": 2.3753434},
{"__type": "VEMaps.PinData","Title": "ECOLE MATERNELLE 90 BD VINCENT AURIOL","Name": "","Description": "","Latitude":48.8335413,"Longitude": 2.363394},
{"__type": "VEMaps.PinData","Title": "ECOLE ÉLÉMENTAIRE 3 RUE EMILE LEVASSOR","Name": "","Description": "","Latitude":48.8208506,"Longitude": 2.3690256},
{"__type": "VEMaps.PinData","Title": "ECOLE ÉLÉMENTAIRE A 8 RUE KUSS","Name": "","Description": "","Latitude":48.8221808,"Longitude": 2.351696},
{"__type": "VEMaps.PinData","Title": "ECOLE ÉLÉMENTAIRE A 9 RUE FRANC-NOHAIN","Name": "","Description": "","Latitude":48.8213707,"Longitude": 2.3753434},
{"__type": "VEMaps.PinData","Title": "ECOLE ÉLÉMENTAIRE B 30 PL JEANNE D'ARC","Name": "","Description": "","Latitude":48.8303486,"Longitude": 2.3684373},
{"__type": "VEMaps.PinData","Title": "ECOLE ÉLÉMENTAIRE B 46 RUE JENNER","Name": "","Description": "","Latitude":48.8359667,"Longitude": 2.3609991},
{"__type": "VEMaps.PinData","Title": "ECOLE ÉLÉMENTAIRE B 47 AV IVRY","Name": "","Description": "","Latitude":48.8232389,"Longitude": 2.3658388},
{"__type": "VEMaps.PinData","Title": "ECOLE ÉLÉMENTAIRE B 55 RUE BAUDRICOURT","Name": "","Description": "","Latitude":48.8257264,"Longitude": 2.3630826},
{"__type": "VEMaps.PinData","Title": "ECOLE ÉLÉMENTAIRE B 7 RUE PROVIDENCE","Name": "","Description": "","Latitude":48.825378,"Longitude": 2.3487544},
{"__type": "VEMaps.PinData","Title": "ECOLE ÉLÉMENTAIRE B 9 RUE AUGUSTE PERRET","Name": "","Description": "","Latitude":48.8248069,"Longitude": 2.3596496},
{"__type": "VEMaps.PinData","Title": "ECOLE ÉLÉMENTAIRE 100 RUE DE LA GLACIERE","Name": "","Description": "","Latitude":48.82986,"Longitude": 2.3429823},
{"__type": "VEMaps.PinData","Title": "ECOLE ÉLÉMENTAIRE 11 RUE PIERRE GOURDAULT","Name": "","Description": "","Latitude":48.8312889,"Longitude": 2.3707539},
{"__type": "VEMaps.PinData","Title": "ECOLE ÉLÉMENTAIRE 13 RUE FAGON","Name": "","Description": "","Latitude":48.8325114,"Longitude": 2.3570426},
{"__type": "VEMaps.PinData","Title": "ECOLE ÉLÉMENTAIRE 13 RUE VULPIAN","Name": "","Description": "","Latitude":48.8314722,"Longitude": 2.3465185},
{"__type": "VEMaps.PinData","Title": "ECOLE ÉLÉMENTAIRE 140 RUE LEON-MAURICE NORDMANN","Name": "","Description": "","Latitude":48.8336809,"Longitude": 2.3429566},
{"__type": "VEMaps.PinData","Title": "ECOLE ÉLÉMENTAIRE 16 RUE WURTZ","Name": "","Description": "","Latitude":48.8268658,"Longitude": 2.3446572},
{"__type": "VEMaps.PinData","Title": "ECOLE ÉLÉMENTAIRE 173 RUE CHATEAU DES RENTIERS","Name": "","Description": "","Latitude":48.8302868,"Longitude": 2.3619845},
{"__type": "VEMaps.PinData","Title": "ECOLE POLYVALENTE 2 PLACE DES 44 ENFANTS D’IZIEU","Name": "","Description": "","Latitude":48.830759,"Longitude": 2.359204},
{"__type": "VEMaps.PinData","Title": "ECOLE POLYVALENTE 21 RUE PRIMO LEVI","Name": "","Description": "","Latitude":48.830525,"Longitude": 2.378579},
{"__type": "VEMaps.PinData","Title": "ECOLE POLYVALENTE 40 RUE DU CHÂTEAU DES RENTIERS","Name": "","Description": "","Latitude":48.8248588,"Longitude": 2.3699483},
{"__type": "VEMaps.PinData","Title": "ECOLE POLYVALENTE 8 RUE GEORGE BALANCHINE","Name": "","Description": "","Latitude":48.8364364,"Longitude": 2.3737579},
{"__type": "VEMaps.PinData","Title": "ECOLE POLYVALENTE 8 RUE KUSS","Name": "","Description": "","Latitude":48.8221808,"Longitude": 2.351696},
{"__type": "VEMaps.PinData","Title": "CENTRE D'ANIMATION BAUDRICOURT","Name": "","Description": "","Latitude":48.8235098,"Longitude": 2.3639301},
{"__type": "VEMaps.PinData","Title": "CENTRE D'ANIMATION CHARLES RICHET","Name": "","Description": "","Latitude":48.8319242,"Longitude": 2.364011},
{"__type": "VEMaps.PinData","Title": "CENTRE D'ANIMATION DAVIEL","Name": "","Description": "","Latitude":48.8281766,"Longitude": 2.3447246},
{"__type": "VEMaps.PinData","Title": "CENTRE D'ANIMATION DUNOIS","Name": "","Description": "","Latitude":48.8331026,"Longitude": 2.3663349},
{"__type": "VEMaps.PinData","Title": "CENTRE D'ANIMATION POTERNE DES PEUPLIERS","Name": "","Description": "","Latitude":48.8205335,"Longitude": 2.3510481},
{"__type": "VEMaps.PinData","Title": "CENTRE D'ANIMATION OUDINE","Name": "","Description": "","Latitude":48.825869,"Longitude": 2.3759222},
{"__type": "VEMaps.PinData","Title": "CENTRE D'ANIMATION MASSENA","Name": "","Description": "","Latitude":48.8307047,"Longitude": 2.380085},
{"__type": "VEMaps.PinData","Title": "ECOLE MATERNELLE 23 RUE BOULARD","Name": "","Description": "","Latitude":48.8337448,"Longitude": 2.3288462},
{"__type": "VEMaps.PinData","Title": "ECOLE MATERNELLE 23 RUE JACQUIER","Name": "","Description": "","Latitude":48.8300322,"Longitude": 2.3169664},
{"__type": "VEMaps.PinData","Title": "ECOLE MATERNELLE 24 RUE DELAMBRE","Name": "","Description": "","Latitude":48.8415709,"Longitude": 2.3269971},
{"__type": "VEMaps.PinData","Title": "ECOLE MATERNELLE 3 BIS RUE ALESIA","Name": "","Description": "","Latitude":48.8266585,"Longitude": 2.3397051},
{"__type": "VEMaps.PinData","Title": "ECOLE MATERNELLE 34 RUE SARRETTE","Name": "","Description": "","Latitude":48.8260241,"Longitude": 2.3286503},
{"__type": "VEMaps.PinData","Title": "ECOLE MATERNELLE 48 RUE HIPPOLYTE MAINDRON","Name": "","Description": "","Latitude":48.8305263,"Longitude": 2.3206579},
{"__type": "VEMaps.PinData","Title": "ECOLE MATERNELLE 55 RUE MAURICE RIPOCHE","Name": "","Description": "","Latitude":48.8333077,"Longitude": 2.3230066},
{"__type": "VEMaps.PinData","Title": "ECOLE MATERNELLE 55 RUE SARRETTE","Name": "","Description": "","Latitude":48.8251358,"Longitude": 2.3268002},
{"__type": "VEMaps.PinData","Title": "ECOLE MATERNELLE 7 AV MAURICE D'OCAGNE","Name": "","Description": "","Latitude":48.8248806,"Longitude": 2.3120384},
{"__type": "VEMaps.PinData","Title": "ECOLE MATERNELLE 77 RUE TOMBE ISSOIRE","Name": "","Description": "","Latitude":48.8276339,"Longitude": 2.3324518},
{"__type": "VEMaps.PinData","Title": "ECOLE MATERNELLE 7 SQ ALAIN-FOURNIER","Name": "","Description": "","Latitude":48.8274617,"Longitude": 2.3068754},
{"__type": "VEMaps.PinData","Title": "ECOLE ÉLÉMENTAIRE 3 RUE ALESIA","Name": "","Description": "","Latitude":48.8266585,"Longitude": 2.3397051},
{"__type": "VEMaps.PinData","Title": "ECOLE ÉLÉMENTAIRE 46 RUE BOULARD","Name": "","Description": "","Latitude":48.832886,"Longitude": 2.3281076},
{"__type": "VEMaps.PinData","Title": "ECOLE ÉLÉMENTAIRE 48 RUE HIPPOLYTE MAINDRON","Name": "","Description": "","Latitude":48.8305263,"Longitude": 2.3206579},
{"__type": "VEMaps.PinData","Title": "ECOLE ÉLÉMENTAIRE 5 RUE PRISSE D'AVENNES","Name": "","Description": "","Latitude":48.8251294,"Longitude": 2.3282878},
{"__type": "VEMaps.PinData","Title": "ECOLE ÉLÉMENTAIRE 7 AV MAURICE D'OCAGNE","Name": "","Description": "","Latitude":48.8248806,"Longitude": 2.3120384},
{"__type": "VEMaps.PinData","Title": "ECOLE ÉLÉMENTAIRE 7 RUE ASSELINE","Name": "","Description": "","Latitude":48.8351232,"Longitude": 2.3227137},
{"__type": "VEMaps.PinData","Title": "ECOLE ÉLÉMENTAIRE 8 RUE MAURICE ROUVIER","Name": "","Description": "","Latitude":48.831131,"Longitude": 2.3097269},
{"__type": "VEMaps.PinData","Title": "ECOLE ÉLÉMENTAIRE 87 BD ARAGO","Name": "","Description": "","Latitude":48.834543,"Longitude": 2.3358709},
{"__type": "VEMaps.PinData","Title": "ECOLE ÉLÉMENTAIRE 5 SQ ALAIN-FOURNIER","Name": "","Description": "","Latitude":48.8280984,"Longitude": 2.3071809},
{"__type": "VEMaps.PinData","Title": "ECOLE ÉLÉMENTAIRE 12 RUE ALESIA","Name": "","Description": "","Latitude":48.8277954,"Longitude": 2.3334781},
{"__type": "VEMaps.PinData","Title": "ECOLE ÉLÉMENTAIRE 12 RUE SEVERO","Name": "","Description": "","Latitude":48.8324806,"Longitude": 2.3235229},
{"__type": "VEMaps.PinData","Title": "ECOLE ÉLÉMENTAIRE 18 RUE JEAN ZAY","Name": "","Description": "","Latitude":48.8375299,"Longitude": 2.3208731},
{"__type": "VEMaps.PinData","Title": "ECOLE ÉLÉMENTAIRE 188 RUE ALESIA","Name": "","Description": "","Latitude":48.8324467,"Longitude": 2.3123078},
{"__type": "VEMaps.PinData","Title": "ECOLE ÉLÉMENTAIRE 20 RUE ANTOINE CHANTIN","Name": "","Description": "","Latitude":48.8272947,"Longitude": 2.3224127},
{"__type": "VEMaps.PinData","Title": "ECOLE ÉLÉMENTAIRE 24 RUE DELAMBRE","Name": "","Description": "","Latitude":48.8415709,"Longitude": 2.3269971},
{"__type": "VEMaps.PinData","Title": "ECOLE ÉLÉMENTAIRE 28 RUE PIERRE LAROUSSE","Name": "","Description": "","Latitude":48.829155,"Longitude": 2.3141159},
{"__type": "VEMaps.PinData","Title": "ECOLE POLYVALENTE 13 AV DE LA SIBELLE","Name": "","Description": "","Latitude":48.8260258,"Longitude": 2.3384828},
{"__type": "VEMaps.PinData","Title": "ECOLE POLYVALENTE 69 RUE OUEST","Name": "","Description": "","Latitude":48.8357006,"Longitude": 2.3186671},
{"__type": "VEMaps.PinData","Title": "MAIRIE DU 14E ARRONDISSEMENT","Name": "","Description": "","Latitude":48.8326402,"Longitude": 2.3272742},
{"__type": "VEMaps.PinData","Title": "MAIRIE ANNEXE DU 14E ARRONDISSEMENT","Name": "","Description": "","Latitude":48.8324434,"Longitude": 2.3258768},
{"__type": "VEMaps.PinData","Title": "MAISON DES ASSOCIATIONS RUE DEPARCIEUX","Name": "","Description": "","Latitude":48.8356253,"Longitude": 2.3258871},
{"__type": "VEMaps.PinData","Title": "LOCAUX ASSOCIATIFS 12 RUE DU MOULIN DES LAPINS","Name": "","Description": "","Latitude":48.8341858,"Longitude": 2.3208703},
{"__type": "VEMaps.PinData","Title": "ECOLE MATERNELLE 16 RUE EMERIAU","Name": "","Description": "","Latitude":48.8515009,"Longitude": 2.2881729},
{"__type": "VEMaps.PinData","Title": "ECOLE MATERNELLE 17 RUE VOLONTAIRES","Name": "","Description": "","Latitude":48.8425276,"Longitude": 2.3072162},
{"__type": "VEMaps.PinData","Title": "ECOLE MATERNELLE 18 RUE FEDERATION","Name": "","Description": "","Latitude":48.854616,"Longitude": 2.2911172},
{"__type": "VEMaps.PinData","Title": "ECOLE MATERNELLE 2 RUE THEODORE DECK","Name": "","Description": "","Latitude":48.8376016,"Longitude": 2.2906241},
{"__type": "VEMaps.PinData","Title": "ECOLE MATERNELLE 22 RUE SEXTIUS MICHEL","Name": "","Description": "","Latitude":48.8504089,"Longitude": 2.2885638},
{"__type": "VEMaps.PinData","Title": "ECOLE MATERNELLE 3 PL CARDINAL AMETTE","Name": "","Description": "","Latitude":48.8509706,"Longitude": 2.297077},
{"__type": "VEMaps.PinData","Title": "ECOLE MATERNELLE 3 RUE JONGKIND","Name": "","Description": "","Latitude":48.8390462,"Longitude": 2.280131},
{"__type": "VEMaps.PinData","Title": "ECOLE MATERNELLE 34 RUE OLIVIER DE SERRES","Name": "","Description": "","Latitude":48.8355589,"Longitude": 2.2966774},
{"__type": "VEMaps.PinData","Title": "ECOLE MATERNELLE 35 AV EMILE ZOLA","Name": "","Description": "","Latitude":48.8463515,"Longitude": 2.2819113},
{"__type": "VEMaps.PinData","Title": "ECOLE MATERNELLE 38 RUE VIOLET","Name": "","Description": "","Latitude":48.8474324,"Longitude": 2.2926816},
{"__type": "VEMaps.PinData","Title": "ECOLE MATERNELLE 40 RUE MORILLONS","Name": "","Description": "","Latitude":48.8324511,"Longitude": 2.3016473},
{"__type": "VEMaps.PinData","Title": "ECOLE MATERNELLE 42 RUE ALLERAY","Name": "","Description": "","Latitude":48.8367252,"Longitude": 2.3033857},
{"__type": "VEMaps.PinData","Title": "ECOLE MATERNELLE 5 AV PORTE BRANCION","Name": "","Description": "","Latitude":48.8274273,"Longitude": 2.3011319},
{"__type": "VEMaps.PinData","Title": "ECOLE MATERNELLE 5 RUE LACORDAIRE","Name": "","Description": "","Latitude":48.8440949,"Longitude": 2.284373},
{"__type": "VEMaps.PinData","Title": "ECOLE MATERNELLE 56 AV FELIX FAURE","Name": "","Description": "","Latitude":48.8406256,"Longitude": 2.286661},
{"__type": "VEMaps.PinData","Title": "ECOLE MATERNELLE 6 RUE GERBERT","Name": "","Description": "","Latitude":48.8397625,"Longitude": 2.2978252},
{"__type": "VEMaps.PinData","Title": "ECOLE MATERNELLE 66 RUE PROCESSION","Name": "","Description": "","Latitude":48.836578,"Longitude": 2.3094216},
{"__type": "VEMaps.PinData","Title": "ECOLE MATERNELLE 72 RUE GUTENBERG","Name": "","Description": "","Latitude":48.8412086,"Longitude": 2.2785898},
{"__type": "VEMaps.PinData","Title": "ECOLE MATERNELLE 9 RUE VARET","Name": "","Description": "","Latitude":48.8401021,"Longitude": 2.2811514},
{"__type": "VEMaps.PinData","Title": "ECOLE MATERNELLE 95 RUE BALARD","Name": "","Description": "","Latitude":48.8383011,"Longitude": 2.278379},
{"__type": "VEMaps.PinData","Title": "ECOLE MATERNELLE 99 RUE OLIVIER DE SERRES","Name": "","Description": "","Latitude":48.8317787,"Longitude": 2.2932525},
{"__type": "VEMaps.PinData","Title": "ECOLE MATERNELLE A 33 RUE AMIRAL ROUSSIN","Name": "","Description": "","Latitude":48.844611,"Longitude": 2.2995341},
{"__type": "VEMaps.PinData","Title": "ECOLE MATERNELLE A 33 RUE MIOLLIS","Name": "","Description": "","Latitude":48.8454217,"Longitude": 2.3023637},
{"__type": "VEMaps.PinData","Title": "ECOLE MATERNELLE B 13 RUE CEPRE","Name": "","Description": "","Latitude":48.8470967,"Longitude": 2.3036948},
{"__type": "VEMaps.PinData","Title": "ECOLE MATERNELLE B 83 RUE MADEMOISELLE","Name": "","Description": "","Latitude":48.8432351,"Longitude": 2.3005178},
{"__type": "VEMaps.PinData","Title": "ECOLE ÉLÉMENTAIRE 3 RUE CORBON","Name": "","Description": "","Latitude":48.8364612,"Longitude": 2.3032543},
{"__type": "VEMaps.PinData","Title": "ECOLE ÉLÉMENTAIRE 33 BIS RUE MIOLLIS","Name": "","Description": "","Latitude":48.8454217,"Longitude": 2.3023637},
{"__type": "VEMaps.PinData","Title": "ECOLE ÉLÉMENTAIRE 5 AV PORTE BRANCION","Name": "","Description": "","Latitude":48.8274273,"Longitude": 2.3011319},
{"__type": "VEMaps.PinData","Title": "ECOLE ÉLÉMENTAIRE 50 RUE GUTENBERG","Name": "","Description": "","Latitude":48.8426603,"Longitude": 2.2797642},
{"__type": "VEMaps.PinData","Title": "ECOLE ÉLÉMENTAIRE 56 AV FELIX FAURE","Name": "","Description": "","Latitude":48.8406256,"Longitude": 2.286661},
{"__type": "VEMaps.PinData","Title": "ECOLE ÉLÉMENTAIRE 7 RUE LACORDAIRE","Name": "","Description": "","Latitude":48.8438769,"Longitude": 2.2842302},
{"__type": "VEMaps.PinData","Title": "ECOLE ÉLÉMENTAIRE 99 RUE OLIVIER DE SERRES","Name": "","Description": "","Latitude":48.8317787,"Longitude": 2.2932525},
{"__type": "VEMaps.PinData","Title": "ECOLE ÉLÉMENTAIRE A 10 RUE SAINT-LAMBERT","Name": "","Description": "","Latitude":48.8381776,"Longitude": 2.2909134},
{"__type": "VEMaps.PinData","Title": "ECOLE ÉLÉMENTAIRE A 17 RUE VIGEE-LEBRUN","Name": "","Description": "","Latitude":48.8388259,"Longitude": 2.3110873},
{"__type": "VEMaps.PinData","Title": "ECOLE ÉLÉMENTAIRE A 21 RUE DUPLEIX","Name": "","Description": "","Latitude":48.8515143,"Longitude": 2.2970741},
{"__type": "VEMaps.PinData","Title": "ECOLE ÉLÉMENTAIRE A 35 RUE AMIRAL ROUSSIN","Name": "","Description": "","Latitude":48.8443581,"Longitude": 2.2996062},
{"__type": "VEMaps.PinData","Title": "ECOLE ÉLÉMENTAIRE B 11 RUE VIGEE-LEBRUN","Name": "","Description": "","Latitude":48.8389684,"Longitude": 2.3105877},
{"__type": "VEMaps.PinData","Title": "ECOLE ÉLÉMENTAIRE B 12 RUE SAINT-LAMBERT","Name": "","Description": "","Latitude":48.8380289,"Longitude": 2.2910998},
{"__type": "VEMaps.PinData","Title": "ECOLE ÉLÉMENTAIRE B 3 PL CARDINAL AMETTE","Name": "","Description": "","Latitude":48.8509706,"Longitude": 2.297077},
{"__type": "VEMaps.PinData","Title": "ECOLE ÉLÉMENTAIRE B 81 RUE MADEMOISELLE","Name": "","Description": "","Latitude":48.8432711,"Longitude": 2.3003752},
{"__type": "VEMaps.PinData","Title": "ECOLE ÉLÉMENTAIRE (ANNEXE) 20 RUE DE LA SAÏDA","Name": "","Description": "","Latitude":48.8319619,"Longitude": 2.2955779},
{"__type": "VEMaps.PinData","Title": "ECOLE ÉLÉMENTAIRE 10 RUE EMERIAU","Name": "","Description": "","Latitude":48.8516853,"Longitude": 2.2883799},
{"__type": "VEMaps.PinData","Title": "ECOLE ÉLÉMENTAIRE 12 RUE FONDARY","Name": "","Description": "","Latitude":48.8483643,"Longitude": 2.2923537},
{"__type": "VEMaps.PinData","Title": "ECOLE ÉLÉMENTAIRE 14 RUE FRANCOIS COPPEE","Name": "","Description": "","Latitude":48.8397044,"Longitude": 2.2877901},
{"__type": "VEMaps.PinData","Title": "ECOLE ÉLÉMENTAIRE 146 AV FELIX FAURE","Name": "","Description": "","Latitude":48.8373538,"Longitude": 2.2793175},
{"__type": "VEMaps.PinData","Title": "ECOLE ÉLÉMENTAIRE 15 RUE CHERBOURG","Name": "","Description": "","Latitude":48.8309163,"Longitude": 2.3039823},
{"__type": "VEMaps.PinData","Title": "ECOLE ÉLÉMENTAIRE 19 RUE BLOMET","Name": "","Description": "","Latitude":48.843229,"Longitude": 2.3074156},
{"__type": "VEMaps.PinData","Title": "ECOLE ÉLÉMENTAIRE 197 RUE SAINT-CHARLES","Name": "","Description": "","Latitude":48.8400903,"Longitude": 2.279832},
{"__type": "VEMaps.PinData","Title": "ECOLE ÉLÉMENTAIRE 20 RUE FALGUIERE","Name": "","Description": "","Latitude":48.8431852,"Longitude": 2.3166533},
{"__type": "VEMaps.PinData","Title": "ECOLE ÉLÉMENTAIRE 25 RUE ROUELLE","Name": "","Description": "","Latitude":48.8504376,"Longitude": 2.2873633},
{"__type": "VEMaps.PinData","Title": "ECOLE ÉLÉMENTAIRE 27 RUE OLIVIER DE SERRES","Name": "","Description": "","Latitude":48.8356894,"Longitude": 2.2969077},
{"__type": "VEMaps.PinData","Title": "ECOLE POLYVALENTE 3 BD FRERES VOISIN","Name": "","Description": "","Latitude":48.8279336,"Longitude": 2.2711246},
{"__type": "VEMaps.PinData","Title": "ECOLE POLYVALENTE 78 RUE CONVENTION","Name": "","Description": "","Latitude":48.8421488,"Longitude": 2.2855594},
{"__type": "VEMaps.PinData","Title": "MAIRIE DU 15E ARRONDISSEMENT","Name": "","Description": "","Latitude":48.8413986,"Longitude": 2.3003453},
{"__type": "VEMaps.PinData","Title": "MAIRIE D'ARRONDISSEMENT 15E (ANNEXE) LECOURBE","Name": "","Description": "","Latitude":48.8417079,"Longitude": 2.2994759},
{"__type": "VEMaps.PinData","Title": "MAIRIE D'ARRONDISSEMENT (ANNEXE) 15E VIOLET","Name": "","Description": "","Latitude":48.845619,"Longitude": 2.2914486},
{"__type": "VEMaps.PinData","Title": "MAISON DES ASSOCIATIONS RUE DE LA SAIDA","Name": "","Description": "","Latitude":48.8318107,"Longitude": 2.2957874},
{"__type": "VEMaps.PinData","Title": "CRÈCHE FAMILIALE (ANTENNE) 9 RUE PERICHAUX","Name": "","Description": "","Latitude":48.8298625,"Longitude": 2.2990099},
{"__type": "VEMaps.PinData","Title": "CENTRE D'ANIMATION DES FRERES VOISIN","Name": "","Description": "","Latitude":48.828998,"Longitude": 2.2737458},
{"__type": "VEMaps.PinData","Title": "CENTRE D'ANIMATION ESPACE CEVENNES","Name": "","Description": "","Latitude":48.840423,"Longitude": 2.278901},
{"__type": "VEMaps.PinData","Title": "CENTRE D'ANIMATION SOHANE BENZIANE","Name": "","Description": "","Latitude":48.8356427,"Longitude": 2.3118676},
{"__type": "VEMaps.PinData","Title": "ESPACE PARIS PLAINE","Name": "","Description": "","Latitude":48.8279165,"Longitude": 2.2929615},
{"__type": "VEMaps.PinData","Title": "ECOLE MATERNELLE 141 AV VERSAILLES","Name": "","Description": "","Latitude":48.8421743,"Longitude": 2.2678638},
{"__type": "VEMaps.PinData","Title": "ECOLE MATERNELLE 15 BIS RUE SAINT-DIDIER","Name": "","Description": "","Latitude":48.8661154,"Longitude": 2.2877684},
{"__type": "VEMaps.PinData","Title": "ECOLE MATERNELLE 162 BD MURAT","Name": "","Description": "","Latitude":48.8388794,"Longitude": 2.2653837},
{"__type": "VEMaps.PinData","Title": "ECOLE MATERNELLE 18 RUE GROS","Name": "","Description": "","Latitude":48.8512771,"Longitude": 2.275946},
{"__type": "VEMaps.PinData","Title": "ECOLE MATERNELLE 18 RUE SERGE PROKOFIEV","Name": "","Description": "","Latitude":48.85425,"Longitude": 2.2679392},
{"__type": "VEMaps.PinData","Title": "ECOLE MATERNELLE 20 RUE PAUL VALERY","Name": "","Description": "","Latitude":48.8705468,"Longitude": 2.2896703},
{"__type": "VEMaps.PinData","Title": "ECOLE MATERNELLE 25 RUE PASSY","Name": "","Description": "","Latitude":48.8580281,"Longitude": 2.2823306},
{"__type": "VEMaps.PinData","Title": "ECOLE MATERNELLE 27 AV PARC DES PRINCES","Name": "","Description": "","Latitude":48.8400858,"Longitude": 2.2547465},
{"__type": "VEMaps.PinData","Title": "ECOLE MATERNELLE 38 RUE PERCHAMPS","Name": "","Description": "","Latitude":48.8492563,"Longitude": 2.2681662},
{"__type": "VEMaps.PinData","Title": "ECOLE MATERNELLE 5 RUE GUSTAVE ZEDE","Name": "","Description": "","Latitude":48.8560339,"Longitude": 2.2730212},
{"__type": "VEMaps.PinData","Title": "ECOLE MATERNELLE 56 RUE BOISSIERE","Name": "","Description": "","Latitude":48.8681034,"Longitude": 2.2879413},
{"__type": "VEMaps.PinData","Title": "ECOLE MATERNELLE 56-58 RUE ERLANGER","Name": "","Description": "","Latitude":48.8440072,"Longitude": 2.2595307},
{"__type": "VEMaps.PinData","Title": "ECOLE MATERNELLE 64 RUE CHARDON-LAGACHE","Name": "","Description": "","Latitude":48.8423754,"Longitude": 2.2642506},
{"__type": "VEMaps.PinData","Title": "ECOLE MATERNELLE 9 RUE BOULAINVILLIERS","Name": "","Description": "","Latitude":48.852181,"Longitude": 2.2768272},
{"__type": "VEMaps.PinData","Title": "ECOLE ÉLÉMENTAIRE 41 BIS RUE LA FONTAINE","Name": "","Description": "","Latitude":48.8503249,"Longitude": 2.2703598},
{"__type": "VEMaps.PinData","Title": "ECOLE ÉLÉMENTAIRE 51 RUE MICHEL-ANGE","Name": "","Description": "","Latitude":48.8441117,"Longitude": 2.2609916},
{"__type": "VEMaps.PinData","Title": "ECOLE ÉLÉMENTAIRE 54 RUE BOISSIERE","Name": "","Description": "","Latitude":48.8680379,"Longitude": 2.2880307},
{"__type": "VEMaps.PinData","Title": "ECOLE ÉLÉMENTAIRE 63 RUE BOILEAU","Name": "","Description": "","Latitude":48.8427151,"Longitude": 2.2629694},
{"__type": "VEMaps.PinData","Title": "ECOLE ÉLÉMENTAIRE 8 RUE CHERNOVIZ","Name": "","Description": "","Latitude":48.8573153,"Longitude": 2.2820687},
{"__type": "VEMaps.PinData","Title": "ECOLE ÉLÉMENTAIRE 10 RUE BAUCHES","Name": "","Description": "","Latitude":48.8559794,"Longitude": 2.2740391},
{"__type": "VEMaps.PinData","Title": "ECOLE ÉLÉMENTAIRE 130 RUE LONGCHAMP","Name": "","Description": "","Latitude":48.8755732,"Longitude": 2.2497227},
{"__type": "VEMaps.PinData","Title": "ECOLE ÉLÉMENTAIRE 15 BIS RUE SAINT-DIDIER","Name": "","Description": "","Latitude":48.8661154,"Longitude": 2.2877684},
{"__type": "VEMaps.PinData","Title": "ECOLE ÉLÉMENTAIRE 15 RUE BAUCHES","Name": "","Description": "","Latitude":48.8560332,"Longitude": 2.2735101},
{"__type": "VEMaps.PinData","Title": "ECOLE ÉLÉMENTAIRE 162 BD MURAT","Name": "","Description": "","Latitude":48.8388794,"Longitude": 2.2653837},
{"__type": "VEMaps.PinData","Title": "ECOLE ÉLÉMENTAIRE 17 RUE BOILEAU","Name": "","Description": "","Latitude":48.8463923,"Longitude": 2.2652888},
{"__type": "VEMaps.PinData","Title": "ECOLE ÉLÉMENTAIRE 18 RUE PAUL VALERY","Name": "","Description": "","Latitude":48.8703405,"Longitude": 2.2899176},
{"__type": "VEMaps.PinData","Title": "ECOLE ÉLÉMENTAIRE 20 RUE MUSSET","Name": "","Description": "","Latitude":48.8420502,"Longitude": 2.2634733},
{"__type": "VEMaps.PinData","Title": "ECOLE ÉLÉMENTAIRE 21 RUE HAMELIN","Name": "","Description": "","Latitude":48.8673121,"Longitude": 2.2920809},
{"__type": "VEMaps.PinData","Title": "ECOLE ÉLÉMENTAIRE 23 AV PARC DES PRINCES","Name": "","Description": "","Latitude":48.8408861,"Longitude": 2.2546095},
{"__type": "VEMaps.PinData","Title": "ECOLE POLYVALENTE 3 IMP BELLES-FEUILLES","Name": "","Description": "","Latitude":48.8688029,"Longitude": 2.2807044},
{"__type": "VEMaps.PinData","Title": "ECOLE POLYVALENTE 4 RUE DECAMPS","Name": "","Description": "","Latitude":48.865271,"Longitude": 2.2826124},
{"__type": "VEMaps.PinData","Title": "MAIRIE DU 16E ARRONDISSEMENT","Name": "","Description": "","Latitude":48.8639519,"Longitude": 2.2773394},
{"__type": "VEMaps.PinData","Title": "MAISON DES ASSOCIATIONS AVENUE RENÉ BOYLESVE","Name": "","Description": "","Latitude":48.8565747,"Longitude": 2.2841992},
{"__type": "VEMaps.PinData","Title": "ECOLE MATERNELLE 16 RUE COLONEL MOLL","Name": "","Description": "","Latitude":48.8781059,"Longitude": 2.2899678},
{"__type": "VEMaps.PinData","Title": "ECOLE MATERNELLE 16 RUE DAUTANCOURT","Name": "","Description": "","Latitude":48.889423,"Longitude": 2.324387},
{"__type": "VEMaps.PinData","Title": "ECOLE MATERNELLE 18 RUE AMPERE","Name": "","Description": "","Latitude":48.8853349,"Longitude": 2.3047673},
{"__type": "VEMaps.PinData","Title": "ECOLE MATERNELLE 20 RUE JOUFFROY D'ABBANS","Name": "","Description": "","Latitude":48.8864641,"Longitude": 2.3109637},
{"__type": "VEMaps.PinData","Title": "ECOLE MATERNELLE 21 RUE ANDRE BRECHET","Name": "","Description": "","Latitude":48.8988631,"Longitude": 2.3269897},
{"__type": "VEMaps.PinData","Title": "ECOLE MATERNELLE 21 RUE CAPITAINE LAGACHE","Name": "","Description": "","Latitude":48.8920256,"Longitude": 2.3256539},
{"__type": "VEMaps.PinData","Title": "ECOLE MATERNELLE 22 AV PORTE DE VILLIERS","Name": "","Description": "","Latitude":48.8848527,"Longitude": 2.2853766},
{"__type": "VEMaps.PinData","Title": "ECOLE MATERNELLE 221 BD PEREIRE","Name": "","Description": "","Latitude":48.8804491,"Longitude": 2.2893636},
{"__type": "VEMaps.PinData","Title": "ECOLE MATERNELLE 24 RUE CHRISTINE DE PISAN","Name": "","Description": "","Latitude":48.8900761,"Longitude": 2.3080569},
{"__type": "VEMaps.PinData","Title": "ECOLE MATERNELLE 28 RUE BROCHANT","Name": "","Description": "","Latitude":48.889559,"Longitude": 2.318974},
{"__type": "VEMaps.PinData","Title": "ECOLE MATERNELLE 3 RUE GUSTAVE DORE","Name": "","Description": "","Latitude":48.8861645,"Longitude": 2.3033185},
{"__type": "VEMaps.PinData","Title": "ECOLE MATERNELLE 31 RUE DES RENAUDES","Name": "","Description": "","Latitude":48.8808671,"Longitude": 2.2975486},
{"__type": "VEMaps.PinData","Title": "ECOLE MATERNELLE 44 RUE EPINETTES","Name": "","Description": "","Latitude":48.8969036,"Longitude": 2.323904},
{"__type": "VEMaps.PinData","Title": "ECOLE MATERNELLE 48 RUE SAUSSURE","Name": "","Description": "","Latitude":48.8850968,"Longitude": 2.3152761},
{"__type": "VEMaps.PinData","Title": "ECOLE MATERNELLE 56 RUE BAYEN","Name": "","Description": "","Latitude":48.8834931,"Longitude": 2.2901767},
{"__type": "VEMaps.PinData","Title": "ECOLE MATERNELLE 6 RUE LOUIS VIERNE","Name": "","Description": "","Latitude":48.8883519,"Longitude": 2.2898005},
{"__type": "VEMaps.PinData","Title": "ECOLE MATERNELLE 61 CI FLEURS","Name": "","Description": "","Latitude":48.8926143,"Longitude": 2.3203252},
{"__type": "VEMaps.PinData","Title": "ECOLE MATERNELLE 8 RUE TAPISSERIES","Name": "","Description": "","Latitude":48.8883296,"Longitude": 2.307649},
{"__type": "VEMaps.PinData","Title": "ECOLE MATERNELLE 90 BD BESSIERES","Name": "","Description": "","Latitude":48.8964226,"Longitude": 2.3189824},
{"__type": "VEMaps.PinData","Title": "ECOLE ÉLÉMENTAIRE 42 RUE EPINETTES","Name": "","Description": "","Latitude":48.8967226,"Longitude": 2.3237172},
{"__type": "VEMaps.PinData","Title": "ECOLE ÉLÉMENTAIRE 42 RUE POUCHET","Name": "","Description": "","Latitude":48.8939575,"Longitude": 2.3204137},
{"__type": "VEMaps.PinData","Title": "ECOLE ÉLÉMENTAIRE 49 RUE LEGENDRE","Name": "","Description": "","Latitude":48.885325,"Longitude": 2.3162039},
{"__type": "VEMaps.PinData","Title": "ECOLE ÉLÉMENTAIRE 5 RUE JACQUES KELLNER","Name": "","Description": "","Latitude":48.8966883,"Longitude": 2.3248523},
{"__type": "VEMaps.PinData","Title": "ECOLE ÉLÉMENTAIRE 7 AV PORTE DE CHAMPERRET","Name": "","Description": "","Latitude":48.8862457,"Longitude": 2.2870991},
{"__type": "VEMaps.PinData","Title": "ECOLE ÉLÉMENTAIRE 92 BD BESSIERES","Name": "","Description": "","Latitude":48.8963531,"Longitude": 2.3188017},
{"__type": "VEMaps.PinData","Title": "ECOLE ÉLÉMENTAIRE 101 RUE SAUSSURE","Name": "","Description": "","Latitude":48.8874515,"Longitude": 2.3117369},
{"__type": "VEMaps.PinData","Title": "ECOLE ÉLÉMENTAIRE 105 RUE LEMERCIER","Name": "","Description": "","Latitude":48.8897427,"Longitude": 2.3180062},
{"__type": "VEMaps.PinData","Title": "ECOLE ÉLÉMENTAIRE 112 BD BERTHIER","Name": "","Description": "","Latitude":48.8892144,"Longitude": 2.3017984},
{"__type": "VEMaps.PinData","Title": "ECOLE ÉLÉMENTAIRE 12 BIS RUE FOURCROY","Name": "","Description": "","Latitude":48.8804475,"Longitude": 2.2964632},
{"__type": "VEMaps.PinData","Title": "ECOLE ÉLÉMENTAIRE 16 RUE COLONEL MOLL","Name": "","Description": "","Latitude":48.8781059,"Longitude": 2.2899678},
{"__type": "VEMaps.PinData","Title": "ECOLE ÉLÉMENTAIRE 16 RUE LAUGIER","Name": "","Description": "","Latitude":48.8803665,"Longitude": 2.2966801},
{"__type": "VEMaps.PinData","Title": "ECOLE ÉLÉMENTAIRE 18 RUE AMPERE","Name": "","Description": "","Latitude":48.8853349,"Longitude": 2.3047673},
{"__type": "VEMaps.PinData","Title": "ECOLE ÉLÉMENTAIRE 19 RUE CAPITAINE LAGACHE","Name": "","Description": "","Latitude":48.8920052,"Longitude": 2.3257833},
{"__type": "VEMaps.PinData","Title": "ECOLE ÉLÉMENTAIRE 20 RUE JOUFFROY D'ABBANS","Name": "","Description": "","Latitude":48.8864641,"Longitude": 2.3109637},
{"__type": "VEMaps.PinData","Title": "ECOLE ÉLÉMENTAIRE 221 BD PEREIRE","Name": "","Description": "","Latitude":48.8804491,"Longitude": 2.2893636},
{"__type": "VEMaps.PinData","Title": "ECOLE ÉLÉMENTAIRE 23 AV SAINT-OUEN","Name": "","Description": "","Latitude":48.8889445,"Longitude": 2.3259615},
{"__type": "VEMaps.PinData","Title": "ECOLE POLYVALENTE 10 RUE BOURSAULT","Name": "","Description": "","Latitude":48.8828295,"Longitude": 2.3207561},
{"__type": "VEMaps.PinData","Title": "ECOLE POLYVALENTE 15 RUE TRUFFAUT","Name": "","Description": "","Latitude":48.8849834,"Longitude": 2.3224696},
{"__type": "VEMaps.PinData","Title": "ECOLE POLYVALENTE 38 BD REIMS","Name": "","Description": "","Latitude":48.8881044,"Longitude": 2.2952869},
{"__type": "VEMaps.PinData","Title": "ECOLE POLYVALENTE 5 RUE MARGUERITE LONG","Name": "","Description": "","Latitude":48.8911567,"Longitude": 2.3044675},
{"__type": "VEMaps.PinData","Title": "ECOLE POLYVALENTE 6 RUE LECOMTE","Name": "","Description": "","Latitude":48.8887083,"Longitude": 2.3209132},
{"__type": "VEMaps.PinData","Title": "MAIRIE DU 17E ARRONDISSEMENT","Name": "","Description": "","Latitude":48.8842054,"Longitude": 2.322137},
{"__type": "VEMaps.PinData","Title": "MAISON DES ASSOCIATIONS RUE LANTIEZ","Name": "","Description": "","Latitude":48.8948843,"Longitude": 2.323919},
{"__type": "VEMaps.PinData","Title": "ANTENNE JEUNES LES HAUTS DE MALESHERBES ","Name": "","Description": "","Latitude":48.8923587,"Longitude": 2.3025504},
{"__type": "VEMaps.PinData","Title": "ANTENNE JEUNES LOUCHEUR","Name": "","Description": "","Latitude":48.8980843,"Longitude": 2.3256739},
{"__type": "VEMaps.PinData","Title": "ECOLE MATERNELLE 1 RUE PAUL ABADIE","Name": "","Description": "","Latitude":48.897242,"Longitude": 2.3357012},
{"__type": "VEMaps.PinData","Title": "ECOLE MATERNELLE 11 RUE ANDRE DEL SARTE","Name": "","Description": "","Latitude":48.8857576,"Longitude": 2.3464238},
{"__type": "VEMaps.PinData","Title": "ECOLE MATERNELLE 131 RUE BELLIARD","Name": "","Description": "","Latitude":48.8963368,"Longitude": 2.3352565},
{"__type": "VEMaps.PinData","Title": "ECOLE MATERNELLE 18 RUE RICHOMME","Name": "","Description": "","Latitude":48.8864347,"Longitude": 2.3521259},
{"__type": "VEMaps.PinData","Title": "ECOLE MATERNELLE 19 RUE AMIRAUX","Name": "","Description": "","Latitude":48.8946446,"Longitude": 2.3502339},
{"__type": "VEMaps.PinData","Title": "ECOLE MATERNELLE 2 RUE CHARLES HERMITE","Name": "","Description": "","Latitude":48.8998507,"Longitude": 2.3701817},
{"__type": "VEMaps.PinData","Title": "ECOLE MATERNELLE 2 RUE VAUVENARGUES","Name": "","Description": "","Latitude":48.8916718,"Longitude": 2.334987},
{"__type": "VEMaps.PinData","Title": "ECOLE MATERNELLE 29 RUE MARCADET","Name": "","Description": "","Latitude":48.8903399,"Longitude": 2.352817},
{"__type": "VEMaps.PinData","Title": "ECOLE MATERNELLE 3 RUE FERDINAND FLOCON","Name": "","Description": "","Latitude":48.8911559,"Longitude": 2.3456214},
{"__type": "VEMaps.PinData","Title": "ECOLE MATERNELLE 3 RUE SAINT-LUC","Name": "","Description": "","Latitude":48.8855996,"Longitude": 2.3541658},
{"__type": "VEMaps.PinData","Title": "ECOLE MATERNELLE 4 PL JEAN-BAPTISTE CLEMENT","Name": "","Description": "","Latitude":48.8863811,"Longitude": 2.3388254},
{"__type": "VEMaps.PinData","Title": "ECOLE MATERNELLE 4 SQ LAMARCK","Name": "","Description": "","Latitude":48.8905067,"Longitude": 2.335646},
{"__type": "VEMaps.PinData","Title": "ECOLE MATERNELLE 41 RUE CLOYS","Name": "","Description": "","Latitude":48.8929786,"Longitude": 2.3382905},
{"__type": "VEMaps.PinData","Title": "ECOLE MATERNELLE 5 RUE CARPEAUX","Name": "","Description": "","Latitude":48.8904338,"Longitude": 2.3300176},
{"__type": "VEMaps.PinData","Title": "ECOLE MATERNELLE 51 RUE DEPARTEMENT","Name": "","Description": "","Latitude":48.8865045,"Longitude": 2.3618737},
{"__type": "VEMaps.PinData","Title": "ECOLE MATERNELLE 52 RUE VAUVENARGUES","Name": "","Description": "","Latitude":48.8954468,"Longitude": 2.3315156},
{"__type": "VEMaps.PinData","Title": "ECOLE MATERNELLE 53 BIS RUE MARX DORMOY","Name": "","Description": "","Latitude":48.8884194,"Longitude": 2.3597251},
{"__type": "VEMaps.PinData","Title": "ECOLE MATERNELLE 56 RUE ORSEL","Name": "","Description": "","Latitude":48.883547,"Longitude": 2.3408794},
{"__type": "VEMaps.PinData","Title": "ECOLE MATERNELLE 57 RUE GOUTTE D'OR","Name": "","Description": "","Latitude":48.8850277,"Longitude": 2.350959},
{"__type": "VEMaps.PinData","Title": "ECOLE MATERNELLE 6 RUE RUISSEAU","Name": "","Description": "","Latitude":48.8918314,"Longitude": 2.3399224},
{"__type": "VEMaps.PinData","Title": "ECOLE MATERNELLE 60 RUE RENE BINET","Name": "","Description": "","Latitude":48.8991775,"Longitude": 2.3374569},
{"__type": "VEMaps.PinData","Title": "ECOLE MATERNELLE 7 RUE TCHAIKOVSKI","Name": "","Description": "","Latitude":48.8939552,"Longitude": 2.3645942},
{"__type": "VEMaps.PinData","Title": "ECOLE MATERNELLE 7 RUE TORCY","Name": "","Description": "","Latitude":48.8911258,"Longitude": 2.3646864},
{"__type": "VEMaps.PinData","Title": "ECOLE MATERNELLE 72 RUE CHAMPIONNET","Name": "","Description": "","Latitude":48.8958897,"Longitude": 2.3448416},
{"__type": "VEMaps.PinData","Title": "ECOLE MATERNELLE 77 RUE MONT CENIS","Name": "","Description": "","Latitude":48.8921927,"Longitude": 2.3440776},
{"__type": "VEMaps.PinData","Title": "ECOLE MATERNELLE 8 RUE CHRISTIANI","Name": "","Description": "","Latitude":48.8859754,"Longitude": 2.3485565},
{"__type": "VEMaps.PinData","Title": "ECOLE MATERNELLE 94 RUE JOSEPH DE MAISTRE","Name": "","Description": "","Latitude":48.8932575,"Longitude": 2.3302833},
{"__type": "VEMaps.PinData","Title": "ECOLE ÉLÉMENTAIRE 33 RUE DE L'EVANGILE","Name": "","Description": "","Latitude":48.8940111,"Longitude": 2.3648726},
{"__type": "VEMaps.PinData","Title": "ECOLE ÉLÉMENTAIRE 4 RUE CHARLES HERMITE","Name": "","Description": "","Latitude":48.8998469,"Longitude": 2.369978},
{"__type": "VEMaps.PinData","Title": "ECOLE ÉLÉMENTAIRE 5 RUE FERDINAND FLOCON","Name": "","Description": "","Latitude":48.8917428,"Longitude": 2.345814},
{"__type": "VEMaps.PinData","Title": "ECOLE ÉLÉMENTAIRE 5 RUE TORCY","Name": "","Description": "","Latitude":48.8911352,"Longitude": 2.3647694},
{"__type": "VEMaps.PinData","Title": "ECOLE ÉLÉMENTAIRE 50 RUE VAUVENARGUES","Name": "","Description": "","Latitude":48.8953171,"Longitude": 2.331646},
{"__type": "VEMaps.PinData","Title": "ECOLE ÉLÉMENTAIRE 58 RUE PHILIPPE DE GIRARD","Name": "","Description": "","Latitude":48.8863186,"Longitude": 2.3611615},
{"__type": "VEMaps.PinData","Title": "ECOLE ÉLÉMENTAIRE 6 RUE JEAN-FRANCOIS LEPINE","Name": "","Description": "","Latitude":48.8861557,"Longitude": 2.3583725},
{"__type": "VEMaps.PinData","Title": "ECOLE ÉLÉMENTAIRE 61 RUE CLIGNANCOURT","Name": "","Description": "","Latitude":48.8879344,"Longitude": 2.3478273},
{"__type": "VEMaps.PinData","Title": "ECOLE ÉLÉMENTAIRE 62 RUE LEPIC","Name": "","Description": "","Latitude":48.8870069,"Longitude": 2.3339071},
{"__type": "VEMaps.PinData","Title": "ECOLE ÉLÉMENTAIRE 65 RUE DAMREMONT","Name": "","Description": "","Latitude":48.892123,"Longitude": 2.3351362},
{"__type": "VEMaps.PinData","Title": "ECOLE ÉLÉMENTAIRE 67 RUE DAMREMONT","Name": "","Description": "","Latitude":48.8921854,"Longitude": 2.3352631},
{"__type": "VEMaps.PinData","Title": "ECOLE ÉLÉMENTAIRE 69 RUE CHAMPIONNET","Name": "","Description": "","Latitude":48.8957634,"Longitude": 2.3453321},
{"__type": "VEMaps.PinData","Title": "ECOLE ÉLÉMENTAIRE 7 RUE CHAMPIONNET","Name": "","Description": "","Latitude":48.8951706,"Longitude": 2.3522236},
{"__type": "VEMaps.PinData","Title": "ECOLE ÉLÉMENTAIRE 7 RUE DOUDEAUVILLE","Name": "","Description": "","Latitude":48.8888851,"Longitude": 2.3586806},
{"__type": "VEMaps.PinData","Title": "ECOLE ÉLÉMENTAIRE 7 RUE GUSTAVE ROUANET","Name": "","Description": "","Latitude":48.8963815,"Longitude": 2.3400564},
{"__type": "VEMaps.PinData","Title": "ECOLE ÉLÉMENTAIRE 9 RUE RICHOMME","Name": "","Description": "","Latitude":48.8863363,"Longitude": 2.3520283},
{"__type": "VEMaps.PinData","Title": "ECOLE ÉLÉMENTAIRE B 60 RUE RENE BINET","Name": "","Description": "","Latitude":48.8991775,"Longitude": 2.3374569},
{"__type": "VEMaps.PinData","Title": "ECOLE ELEMENTAIRE 5 RUE PIERRE  BUDIN","Name": "","Description": "","Latitude":48.8897341,"Longitude": 2.3530716},
{"__type": "VEMaps.PinData","Title": "ECOLE ÉLÉMENTAIRE 1 RUE FOYATIER","Name": "","Description": "","Latitude":48.8844631,"Longitude": 2.3424584},
{"__type": "VEMaps.PinData","Title": "ECOLE ÉLÉMENTAIRE 11 RUE CAVE","Name": "","Description": "","Latitude":48.8867319,"Longitude": 2.3549007},
{"__type": "VEMaps.PinData","Title": "ECOLE ÉLÉMENTAIRE 129 RUE BELLIARD","Name": "","Description": "","Latitude":48.8964026,"Longitude": 2.3357367},
{"__type": "VEMaps.PinData","Title": "ECOLE ÉLÉMENTAIRE 15 RUE HOUDON","Name": "","Description": "","Latitude":48.8831876,"Longitude": 2.3384939},
{"__type": "VEMaps.PinData","Title": "ECOLE ÉLÉMENTAIRE 18 RUE D'ORAN","Name": "","Description": "","Latitude":48.8889898,"Longitude": 2.3531893},
{"__type": "VEMaps.PinData","Title": "ECOLE ÉLÉMENTAIRE 18 RUE SAINTE-ISAURE","Name": "","Description": "","Latitude":48.894344,"Longitude": 2.3444305},
{"__type": "VEMaps.PinData","Title": "ECOLE ÉLÉMENTAIRE 19 RUE FERNAND LABORI","Name": "","Description": "","Latitude":48.8990305,"Longitude": 2.3422268},
{"__type": "VEMaps.PinData","Title": "ECOLE ÉLÉMENTAIRE 2 RUE GUADELOUPE","Name": "","Description": "","Latitude":48.8908696,"Longitude": 2.3627701},
{"__type": "VEMaps.PinData","Title": "ECOLE ÉLÉMENTAIRE 20 RUE HERMEL","Name": "","Description": "","Latitude":48.8910965,"Longitude": 2.3443172},
{"__type": "VEMaps.PinData","Title": "ECOLE ÉLÉMENTAIRE 26 RUE MONT CENIS","Name": "","Description": "","Latitude":48.8883825,"Longitude": 2.3422126},
{"__type": "VEMaps.PinData","Title": "ECOLE ÉLÉMENTAIRE 29 RUE JOSEPH DE MAISTRE","Name": "","Description": "","Latitude":48.8914598,"Longitude": 2.3308091},
{"__type": "VEMaps.PinData","Title": "ECOLE POLYVALENTE A 60 RUE RENE BINET","Name": "","Description": "","Latitude":48.8991775,"Longitude": 2.3374569},
{"__type": "VEMaps.PinData","Title": "ECOLE POLYVALENTE 11 RUE PAJOL","Name": "","Description": "","Latitude":48.8855407,"Longitude": 2.3606057},
{"__type": "VEMaps.PinData","Title": "ECOLE POLYVALENTE 12 RUE DE TORCY","Name": "","Description": "","Latitude":48.8912762,"Longitude": 2.3641225},
{"__type": "VEMaps.PinData","Title": "ECOLE POLYVALENTE 14 RUE FOREST","Name": "","Description": "","Latitude":48.8856753,"Longitude": 2.3292066},
{"__type": "VEMaps.PinData","Title": "ECOLE POLYVALENTE 142 RUE POISSONNIERS","Name": "","Description": "","Latitude":48.8965032,"Longitude": 2.3528405},
{"__type": "VEMaps.PinData","Title": "ECOLE POLYVALENTE 27 RUE EMILE DUPLOYE","Name": "","Description": "","Latitude":48.8901053,"Longitude": 2.3551664},
{"__type": "VEMaps.PinData","Title": "ECOLE POLYVALENTE 3 RUE MAURICE GENEVOIX","Name": "","Description": "","Latitude":48.8944778,"Longitude": 2.3604061},
{"__type": "VEMaps.PinData","Title": "ECOLE POLYVALENTE 30 RUE CUGNOT","Name": "","Description": "","Latitude":48.8926676,"Longitude": 2.3645635},
{"__type": "VEMaps.PinData","Title": "ECOLE POLYVALENTE 49 BIS RUE GOUTTE D'OR","Name": "","Description": "","Latitude":48.8849349,"Longitude": 2.3520178},
{"__type": "VEMaps.PinData","Title": "ECOLE POLYVALENTE 14 RUE SIMPLON","Name": "","Description": "","Latitude":48.8936089,"Longitude": 2.351041},
{"__type": "VEMaps.PinData","Title": "MAIRIE DU 18E ARRONDISSEMENT","Name": "","Description": "","Latitude":48.892028,"Longitude": 2.3445174},
{"__type": "VEMaps.PinData","Title": "ECOLE MATERNELLE 28 RUE AUBERVILLIERS","Name": "","Description": "","Latitude":48.8857355,"Longitude": 2.3661432},
{"__type": "VEMaps.PinData","Title": "ECOLE MATERNELLE 29 RUE PREVOYANCE","Name": "","Description": "","Latitude":48.8837541,"Longitude": 2.3947845},
{"__type": "VEMaps.PinData","Title": "ECOLE MATERNELLE 34 RUE MANIN","Name": "","Description": "","Latitude":48.8835596,"Longitude": 2.3894914},
{"__type": "VEMaps.PinData","Title": "ECOLE MATERNELLE 34 RUE MAROC","Name": "","Description": "","Latitude":48.8871538,"Longitude": 2.3677646},
{"__type": "VEMaps.PinData","Title": "ECOLE MATERNELLE 36 RUE FESSART","Name": "","Description": "","Latitude":48.8768484,"Longitude": 2.384505},
{"__type": "VEMaps.PinData","Title": "ECOLE MATERNELLE 41 RUE TANGER","Name": "","Description": "","Latitude":48.8875687,"Longitude": 2.370103},
{"__type": "VEMaps.PinData","Title": "ECOLE MATERNELLE 47 RUE ARMAND CARREL","Name": "","Description": "","Latitude":48.8827433,"Longitude": 2.3758675},
{"__type": "VEMaps.PinData","Title": "ECOLE MATERNELLE 5 ALL EIDERS","Name": "","Description": "","Latitude":48.8942314,"Longitude": 2.3790393},
{"__type": "VEMaps.PinData","Title": "ECOLE MATERNELLE 5 RUE GENERAL LASALLE","Name": "","Description": "","Latitude":48.8740671,"Longitude": 2.3803257},
{"__type": "VEMaps.PinData","Title": "ECOLE MATERNELLE EUGENIE COTTON","Name": "","Description": "","Latitude":48.8788391,"Longitude": 2.3949916},
{"__type": "VEMaps.PinData","Title": "ECOLE MATERNELLE 5 RUE NOYER-DURAND","Name": "","Description": "","Latitude":48.8875819,"Longitude": 2.399422},
{"__type": "VEMaps.PinData","Title": "ECOLE MATERNELLE 5 RUE RAMPAL","Name": "","Description": "","Latitude":48.8734082,"Longitude": 2.3796655},
{"__type": "VEMaps.PinData","Title": "ECOLE MATERNELLE 58 RUE ARCHEREAU","Name": "","Description": "","Latitude":48.8927522,"Longitude": 2.3756219},
{"__type": "VEMaps.PinData","Title": "ECOLE MATERNELLE 59B RUE ROMAINVILLE","Name": "","Description": "","Latitude":48.8774021,"Longitude": 2.4032549},
{"__type": "VEMaps.PinData","Title": "ECOLE MATERNELLE 6 PAS THIONVILLE","Name": "","Description": "","Latitude":48.8882756,"Longitude": 2.3819782},
{"__type": "VEMaps.PinData","Title": "ECOLE MATERNELLE 63 RUE ARCHEREAU","Name": "","Description": "","Latitude":48.892653,"Longitude": 2.375688},
{"__type": "VEMaps.PinData","Title": "ECOLE MATERNELLE 65 AV SIMON BOLIVAR","Name": "","Description": "","Latitude":48.876377,"Longitude": 2.3775056},
{"__type": "VEMaps.PinData","Title": "ECOLE MATERNELLE 8 RUE BARBANEGRE","Name": "","Description": "","Latitude":48.8923571,"Longitude": 2.3832921},
{"__type": "VEMaps.PinData","Title": "ECOLE MATERNELLE 8 RUE EMELIE","Name": "","Description": "","Latitude":48.889516,"Longitude": 2.378099},
{"__type": "VEMaps.PinData","Title": "ECOLE MATERNELLE 8 RUE SADI LECOINTE","Name": "","Description": "","Latitude":48.8803668,"Longitude": 2.3738327},
{"__type": "VEMaps.PinData","Title": "ECOLE MATERNELLE 84 RUE CURIAL","Name": "","Description": "","Latitude":48.8949618,"Longitude": 2.3745252},
{"__type": "VEMaps.PinData","Title": "ECOLE MATERNELLE 9 RUE GENERAL BRUNET","Name": "","Description": "","Latitude":48.8803521,"Longitude": 2.3903702},
{"__type": "VEMaps.PinData","Title": "ECOLE ÉLÉMENTAIRE 4 RUE GOUBET","Name": "","Description": "","Latitude":48.883353,"Longitude": 2.3890374},
{"__type": "VEMaps.PinData","Title": "ECOLE ÉLÉMENTAIRE 43 RUE ARMAND CARREL","Name": "","Description": "","Latitude":48.8827426,"Longitude": 2.3765292},
{"__type": "VEMaps.PinData","Title": "ECOLE ÉLÉMENTAIRE 5 RUE ALOUETTES","Name": "","Description": "","Latitude":48.877012,"Longitude": 2.3852391},
{"__type": "VEMaps.PinData","Title": "ECOLE ÉLÉMENTAIRE 61 RUE VILLETTE","Name": "","Description": "","Latitude":48.8783747,"Longitude": 2.3881409},
{"__type": "VEMaps.PinData","Title": "ECOLE ÉLÉMENTAIRE 67 AV SIMON BOLIVAR","Name": "","Description": "","Latitude":48.8763763,"Longitude": 2.3771849},
{"__type": "VEMaps.PinData","Title": "ECOLE ÉLÉMENTAIRE 9 RUE JOMARD","Name": "","Description": "","Latitude":48.8897801,"Longitude": 2.3797367},
{"__type": "VEMaps.PinData","Title": "ECOLE ÉLÉMENTAIRE 9 RUE PIERRE GIRARD","Name": "","Description": "","Latitude":48.8859458,"Longitude": 2.3796319},
{"__type": "VEMaps.PinData","Title": "ECOLE ÉLÉMENTAIRE 9 RUE TANDOU","Name": "","Description": "","Latitude":48.8860235,"Longitude": 2.3792228},
{"__type": "VEMaps.PinData","Title": "ECOLE ÉLÉMENTAIRE A 1 RUE GENERAL LASALLE","Name": "","Description": "","Latitude":48.8744048,"Longitude": 2.3815647},
{"__type": "VEMaps.PinData","Title": "ECOLE ÉLÉMENTAIRE A 105 BIS RUE OURCQ","Name": "","Description": "","Latitude":48.8936049,"Longitude": 2.3752123},
{"__type": "VEMaps.PinData","Title": "ECOLE ÉLÉMENTAIRE A 106 RUE COMPANS","Name": "","Description": "","Latitude":48.8803617,"Longitude": 2.3897676},
{"__type": "VEMaps.PinData","Title": "ECOLE ÉLÉMENTAIRE A 119 AV SIMON BOLIVAR","Name": "","Description": "","Latitude":48.8798428,"Longitude": 2.3742527},
{"__type": "VEMaps.PinData","Title": "ECOLE ÉLÉMENTAIRE A 40BIS RUE MANIN","Name": "","Description": "","Latitude":48.883827,"Longitude": 2.3902391},
{"__type": "VEMaps.PinData","Title": "ECOLE ÉLÉMENTAIRE A 41 RUE TANGER","Name": "","Description": "","Latitude":48.8875687,"Longitude": 2.370103},
{"__type": "VEMaps.PinData","Title": "ECOLE ÉLÉMENTAIRE A 57 RUE ROMAINVILLE","Name": "","Description": "","Latitude":48.8772754,"Longitude": 2.4032261},
{"__type": "VEMaps.PinData","Title": "ECOLE ÉLÉMENTAIRE A 7 RUE BARBANEGRE","Name": "","Description": "","Latitude":48.8920907,"Longitude": 2.3828226},
{"__type": "VEMaps.PinData","Title": "ECOLE ÉLÉMENTAIRE A 84 RUE CURIAL","Name": "","Description": "","Latitude":48.8949618,"Longitude": 2.3745252},
{"__type": "VEMaps.PinData","Title": "ECOLE ÉLÉMENTAIRE B 105 BIS RUE OURCQ","Name": "","Description": "","Latitude":48.8936049,"Longitude": 2.3752123},
{"__type": "VEMaps.PinData","Title": "ECOLE ÉLÉMENTAIRE B 11 RUE RAMPAL","Name": "","Description": "","Latitude":48.8737603,"Longitude": 2.379729},
{"__type": "VEMaps.PinData","Title": "ECOLE ÉLÉMENTAIRE B 119 AV SIMON BOLIVAR","Name": "","Description": "","Latitude":48.8798428,"Longitude": 2.3742527},
{"__type": "VEMaps.PinData","Title": "ECOLE ÉLÉMENTAIRE B 30 RUE MANIN","Name": "","Description": "","Latitude":48.883363,"Longitude": 2.3890571},
{"__type": "VEMaps.PinData","Title": "ECOLE ÉLÉMENTAIRE B 41 RUE TANGER","Name": "","Description": "","Latitude":48.8875687,"Longitude": 2.370103},
{"__type": "VEMaps.PinData","Title": "ECOLE ÉLÉMENTAIRE B 59 RUE ROMAINVILLE","Name": "","Description": "","Latitude":48.8774021,"Longitude": 2.4032549},
{"__type": "VEMaps.PinData","Title": "ECOLE ÉLÉMENTAIRE B 7 RUE BARBANEGRE","Name": "","Description": "","Latitude":48.8920907,"Longitude": 2.3828226},
{"__type": "VEMaps.PinData","Title": "ECOLE ÉLÉMENTAIRE B 7 RUE GENERAL BRUNET","Name": "","Description": "","Latitude":48.8801044,"Longitude": 2.3903343},
{"__type": "VEMaps.PinData","Title": "ECOLE ÉLÉMENTAIRE B 84 RUE CURIAL","Name": "","Description": "","Latitude":48.8949618,"Longitude": 2.3745252},
{"__type": "VEMaps.PinData","Title": "ÉCOLE ÉLÉMENTAIRE A 16 RUE EUGÉNIE COTTON","Name": "","Description": "","Latitude":48.8787801,"Longitude": 2.3944208},
{"__type": "VEMaps.PinData","Title": "ECOLE ÉLÉMENTAIRE B 16 RUE EUGÉNIE COTTON","Name": "","Description": "","Latitude":48.8787801,"Longitude": 2.3944208},
{"__type": "VEMaps.PinData","Title": "ECOLE ÉLÉMENTAIRE 132 RUE AUBERVILLIERS","Name": "","Description": "","Latitude":48.8920284,"Longitude": 2.3691791},
{"__type": "VEMaps.PinData","Title": "ECOLE ÉLÉMENTAIRE 14 RUE MATHIS","Name": "","Description": "","Latitude":48.8907644,"Longitude": 2.3754336},
{"__type": "VEMaps.PinData","Title": "ECOLE ÉLÉMENTAIRE 16 RUE CHEMINETS","Name": "","Description": "","Latitude":48.8878002,"Longitude": 2.3980119},
{"__type": "VEMaps.PinData","Title": "ECOLE ÉLÉMENTAIRE 160 AV JEAN JAURES","Name": "","Description": "","Latitude":48.8874382,"Longitude": 2.3880018},
{"__type": "VEMaps.PinData","Title": "ECOLE ÉLÉMENTAIRE 17 RUE TANGER","Name": "","Description": "","Latitude":48.8857199,"Longitude": 2.3683496},
{"__type": "VEMaps.PinData","Title": "ECOLE ÉLÉMENTAIRE 4 RUE FESSART","Name": "","Description": "","Latitude":48.8762488,"Longitude": 2.388448},
{"__type": "VEMaps.PinData","Title": "ECOLE POLYVALENTE 10 RUE HENRI NOGUERES","Name": "","Description": "","Latitude":48.8848482,"Longitude": 2.37435},
{"__type": "VEMaps.PinData","Title": "ECOLE POLYVALENTE 16 RUE TANDOU","Name": "","Description": "","Latitude":48.886345,"Longitude": 2.3802575},
{"__type": "VEMaps.PinData","Title": "ECOLE POLYVALENTE 53 RUE EMILE BOLLAERT","Name": "","Description": "","Latitude":48.8998169,"Longitude": 2.3751041},
{"__type": "VEMaps.PinData","Title": "ECOLE POLYVALENTE QUAI DU LOT / BOULEVARD MAC DONALD","Name": "","Description": "","Latitude":48.8989137,"Longitude": 2.3815573},
{"__type": "VEMaps.PinData","Title": "MAIRIE DU 19E ARRONDISSEMENT","Name": "","Description": "","Latitude":48.8825582,"Longitude": 2.3816987},
{"__type": "VEMaps.PinData","Title": "MAISON DU COMBATTANT ET DES ASSOCIATIONS","Name": "","Description": "","Latitude":48.8804908,"Longitude": 2.3766261},
{"__type": "VEMaps.PinData","Title": "MAISON DES RAPATRIES","Name": "","Description": "","Latitude":48.8858854,"Longitude": 2.3795067},
{"__type": "VEMaps.PinData","Title": "ECOLE MATERNELLE 12 RUE FONTARABIE","Name": "","Description": "","Latitude":48.8575213,"Longitude": 2.4004344},
{"__type": "VEMaps.PinData","Title": "ECOLE MATERNELLE 12 RUE GRANDS CHAMPS","Name": "","Description": "","Latitude":48.8504739,"Longitude": 2.3997506},
{"__type": "VEMaps.PinData","Title": "ECOLE MATERNELLE 15 RUE EUPATORIA","Name": "","Description": "","Latitude":48.8688517,"Longitude": 2.3870711},
{"__type": "VEMaps.PinData","Title": "ECOLE MATERNELLE 172 RUE PELLEPORT","Name": "","Description": "","Latitude":48.8737409,"Longitude": 2.3979102},
{"__type": "VEMaps.PinData","Title": "ECOLE MATERNELLE 18 RUE CLOS","Name": "","Description": "","Latitude":48.857301,"Longitude": 2.4070965},
{"__type": "VEMaps.PinData","Title": "ECOLE MATERNELLE 18 RUE MARYSE HILSZ","Name": "","Description": "","Latitude":48.8505939,"Longitude": 2.4127709},
{"__type": "VEMaps.PinData","Title": "ECOLE MATERNELLE 10 RUE MENILMONTANT","Name": "","Description": "","Latitude":48.8672608,"Longitude": 2.3841934},
{"__type": "VEMaps.PinData","Title": "ECOLE MATERNELLE 18 RUE SURMELIN","Name": "","Description": "","Latitude":48.8679388,"Longitude": 2.4033369},
{"__type": "VEMaps.PinData","Title": "ECOLE MATERNELLE 2 RUE EUGENE REISZ","Name": "","Description": "","Latitude":48.8562627,"Longitude": 2.4105069},
{"__type": "VEMaps.PinData","Title": "ECOLE MATERNELLE 2 RUE PIERRE FONCIN","Name": "","Description": "","Latitude":48.8714167,"Longitude": 2.4087488},
{"__type": "VEMaps.PinData","Title": "ECOLE MATERNELLE 20 RUE CENDRIERS","Name": "","Description": "","Latitude":48.865556,"Longitude": 2.3869515},
{"__type": "VEMaps.PinData","Title": "ECOLE MATERNELLE 21 RUE BIDASSOA","Name": "","Description": "","Latitude":48.866109,"Longitude": 2.3937217},
{"__type": "VEMaps.PinData","Title": "ECOLE MATERNELLE 24 RUE RETRAIT","Name": "","Description": "","Latitude":48.8690151,"Longitude": 2.3939285},
{"__type": "VEMaps.PinData","Title": "ECOLE MATERNELLE 26 RUE COUR DES NOUES","Name": "","Description": "","Latitude":48.8643958,"Longitude": 2.4006398},
{"__type": "VEMaps.PinData","Title": "ECOLE MATERNELLE 29 AV GAMBETTA","Name": "","Description": "","Latitude":48.8641265,"Longitude": 2.3919682},
{"__type": "VEMaps.PinData","Title": "ECOLE MATERNELLE 29 RUE OLIVIER METRA","Name": "","Description": "","Latitude":48.8730124,"Longitude": 2.3938343},
{"__type": "VEMaps.PinData","Title": "ECOLE MATERNELLE 29 RUE TELEGRAPHE","Name": "","Description": "","Latitude":48.8732481,"Longitude": 2.3991873},
{"__type": "VEMaps.PinData","Title": "ECOLE MATERNELLE 31 RUE MARAICHERS","Name": "","Description": "","Latitude":48.8506825,"Longitude": 2.4073471},
{"__type": "VEMaps.PinData","Title": "ECOLE MATERNELLE 31 RUE OLIVIER METRA","Name": "","Description": "","Latitude":48.8731175,"Longitude": 2.3937502},
{"__type": "VEMaps.PinData","Title": "ECOLE MATERNELLE 32 RUE PALI-KAO","Name": "","Description": "","Latitude":48.8704185,"Longitude": 2.3820576},
{"__type": "VEMaps.PinData","Title": "ECOLE MATERNELLE 39 RUE TOURTILLE","Name": "","Description": "","Latitude":48.8720244,"Longitude": 2.380578},
{"__type": "VEMaps.PinData","Title": "ECOLE MATERNELLE 4 RUE JOURDAIN","Name": "","Description": "","Latitude":48.874929,"Longitude": 2.3897042},
{"__type": "VEMaps.PinData","Title": "ECOLE MATERNELLE 52 RUE PLANCHAT","Name": "","Description": "","Latitude":48.8557836,"Longitude": 2.3966413},
{"__type": "VEMaps.PinData","Title": "ECOLE MATERNELLE 61 RUE VITRUVE","Name": "","Description": "","Latitude":48.8594217,"Longitude": 2.4070023},
{"__type": "VEMaps.PinData","Title": "ECOLE MATERNELLE 68 RUE VITRUVE","Name": "","Description": "","Latitude":48.859275,"Longitude": 2.4067436},
{"__type": "VEMaps.PinData","Title": "ECOLE MATERNELLE 8 RUE LE VAU","Name": "","Description": "","Latitude":48.865989,"Longitude": 2.4113824},
{"__type": "VEMaps.PinData","Title": "ECOLE MATERNELLE 9 RUE LESSEPS","Name": "","Description": "","Latitude":48.8588694,"Longitude": 2.4000262},
{"__type": "VEMaps.PinData","Title": "ECOLE MATERNELLE 9 RUE MOURAUD","Name": "","Description": "","Latitude":48.8554622,"Longitude": 2.4078434},
{"__type": "VEMaps.PinData","Title": "ECOLE MATERNELLE 90 RUE AMANDIERS","Name": "","Description": "","Latitude":48.8669208,"Longitude": 2.3894425},
{"__type": "VEMaps.PinData","Title": "ECOLE MATERNELLE 91 RUE REUNION","Name": "","Description": "","Latitude":48.8565157,"Longitude": 2.4002122},
{"__type": "VEMaps.PinData","Title": "ECOLE MATERNELLE 94 RUE COURONNES","Name": "","Description": "","Latitude":48.8704963,"Longitude": 2.387528},
{"__type": "VEMaps.PinData","Title": "ECOLE MATERNELLE 99 RUE PELLEPORT","Name": "","Description": "","Latitude":48.8702313,"Longitude": 2.3997143},
{"__type": "VEMaps.PinData","Title": "ECOLE MATERNELLE 99 RUE PYRENEES","Name": "","Description": "","Latitude":48.8549922,"Longitude": 2.4052206},
{"__type": "VEMaps.PinData","Title": "ECOLE ÉLÉMENTAIRE 3 PAS JOSSEAUME","Name": "","Description": "","Latitude":48.8548077,"Longitude": 2.402737},
{"__type": "VEMaps.PinData","Title": "ECOLE ÉLÉMENTAIRE 31 RUE ETIENNE DOLET","Name": "","Description": "","Latitude":48.8681557,"Longitude": 2.3854017},
{"__type": "VEMaps.PinData","Title": "ECOLE ÉLÉMENTAIRE 38 RUE TOURTILLE","Name": "","Description": "","Latitude":48.8723186,"Longitude": 2.3804077},
{"__type": "VEMaps.PinData","Title": "ECOLE ÉLÉMENTAIRE 4 RUE EUGENE REISZ","Name": "","Description": "","Latitude":48.8565259,"Longitude": 2.4108008},
{"__type": "VEMaps.PinData","Title": "ECOLE ÉLÉMENTAIRE 40 RUE PYRENEES","Name": "","Description": "","Latitude":48.8509144,"Longitude": 2.4065281},
{"__type": "VEMaps.PinData","Title": "ECOLE ÉLÉMENTAIRE 42 RUE MARE","Name": "","Description": "","Latitude":48.8711449,"Longitude": 2.3899685},
{"__type": "VEMaps.PinData","Title": "ECOLE ÉLÉMENTAIRE 5 RUE MOURAUD","Name": "","Description": "","Latitude":48.8546841,"Longitude": 2.4079028},
{"__type": "VEMaps.PinData","Title": "ECOLE ÉLÉMENTAIRE 51 RUE RAMPONEAU","Name": "","Description": "","Latitude":48.8719366,"Longitude": 2.3824788},
{"__type": "VEMaps.PinData","Title": "ECOLE ÉLÉMENTAIRE 54 RUE PLANCHAT","Name": "","Description": "","Latitude":48.8559862,"Longitude": 2.3965013},
{"__type": "VEMaps.PinData","Title": "ECOLE ÉLÉMENTAIRE 8 RUE PIERRE FONCIN","Name": "","Description": "","Latitude":48.8714033,"Longitude": 2.4103009},
{"__type": "VEMaps.PinData","Title": "ECOLE ÉLÉMENTAIRE 9 RUE BRETONNEAU","Name": "","Description": "","Latitude":48.8676669,"Longitude": 2.4031053},
{"__type": "VEMaps.PinData","Title": "ECOLE ÉLÉMENTAIRE 9 RUE LESSEPS","Name": "","Description": "","Latitude":48.8588694,"Longitude": 2.4000262},
{"__type": "VEMaps.PinData","Title": "ECOLE ÉLÉMENTAIRE 9 RUE PLAINE","Name": "","Description": "","Latitude":48.8499342,"Longitude": 2.4000522},
{"__type": "VEMaps.PinData","Title": "ECOLE ÉLÉMENTAIRE 9 RUE TLEMCEN","Name": "","Description": "","Latitude":48.8645239,"Longitude": 2.3871929},
{"__type": "VEMaps.PinData","Title": "ECOLE ÉLÉMENTAIRE 97 RUE PYRENEES","Name": "","Description": "","Latitude":48.8549762,"Longitude": 2.4052887},
{"__type": "VEMaps.PinData","Title": "ECOLE ÉLÉMENTAIRE 1 RUE LEVERT","Name": "","Description": "","Latitude":48.8728795,"Longitude": 2.3894919},
{"__type": "VEMaps.PinData","Title": "ECOLE ÉLÉMENTAIRE 10 RUE LE VAU","Name": "","Description": "","Latitude":48.8665056,"Longitude": 2.4111748},
{"__type": "VEMaps.PinData","Title": "ECOLE ÉLÉMENTAIRE 103 AV GAMBETTA","Name": "","Description": "","Latitude":48.8668937,"Longitude": 2.3999623},
{"__type": "VEMaps.PinData","Title": "ECOLE ÉLÉMENTAIRE 103 RUE AMANDIERS","Name": "","Description": "","Latitude":48.8673465,"Longitude": 2.3889876},
{"__type": "VEMaps.PinData","Title": "ECOLE ÉLÉMENTAIRE 104 RUE BELLEVILLE","Name": "","Description": "","Latitude":48.8744891,"Longitude": 2.3866525},
{"__type": "VEMaps.PinData","Title": "ECOLE ÉLÉMENTAIRE 11 RUE LESSEPS","Name": "","Description": "","Latitude":48.8590803,"Longitude": 2.3997318},
{"__type": "VEMaps.PinData","Title": "ECOLE ÉLÉMENTAIRE 11 RUE PLAINE","Name": "","Description": "","Latitude":48.8499684,"Longitude": 2.4005267},
{"__type": "VEMaps.PinData","Title": "ECOLE ÉLÉMENTAIRE 14 RUE RIBLETTE","Name": "","Description": "","Latitude":48.8599633,"Longitude": 2.4057604},
{"__type": "VEMaps.PinData","Title": "ECOLE ÉLÉMENTAIRE 15 RUE SORBIER","Name": "","Description": "","Latitude":48.8656224,"Longitude": 2.3931874},
{"__type": "VEMaps.PinData","Title": "ECOLE ÉLÉMENTAIRE 16 RUE JULIEN LACROIX","Name": "","Description": "","Latitude":48.8694573,"Longitude": 2.3856255},
{"__type": "VEMaps.PinData","Title": "ECOLE ÉLÉMENTAIRE 16 RUE RIBLETTE","Name": "","Description": "","Latitude":48.8600322,"Longitude": 2.4065439},
{"__type": "VEMaps.PinData","Title": "ECOLE ÉLÉMENTAIRE 18 RUE CLOS","Name": "","Description": "","Latitude":48.857301,"Longitude": 2.4070965},
{"__type": "VEMaps.PinData","Title": "ECOLE ÉLÉMENTAIRE 20 RUE LE VAU","Name": "","Description": "","Latitude":48.8673577,"Longitude": 2.4108979},
{"__type": "VEMaps.PinData","Title": "ECOLE ÉLÉMENTAIRE 20 RUE MARYSE HILSZ","Name": "","Description": "","Latitude":48.8507597,"Longitude": 2.4128898},
{"__type": "VEMaps.PinData","Title": "ECOLE ÉLÉMENTAIRE 22 RUE OLIVIER METRA","Name": "","Description": "","Latitude":48.872856,"Longitude": 2.3943225},
{"__type": "VEMaps.PinData","Title": "ECOLE ÉLÉMENTAIRE 236 RUE BELLEVILLE","Name": "","Description": "","Latitude":48.8754164,"Longitude": 2.3982975},
{"__type": "VEMaps.PinData","Title": "ECOLE ÉLÉMENTAIRE 24 RUE OLIVIER METRA","Name": "","Description": "","Latitude":48.8729216,"Longitude": 2.394126},
{"__type": "VEMaps.PinData","Title": "ECOLE ÉLÉMENTAIRE 29 RUE TELEGRAPHE","Name": "","Description": "","Latitude":48.8732481,"Longitude": 2.3991873},
{"__type": "VEMaps.PinData","Title": "ECOLE ÉLÉMENTAIRE 291 RUE PYRENEES","Name": "","Description": "","Latitude":48.8692762,"Longitude": 2.3950402},
{"__type": "VEMaps.PinData","Title": "ECOLE ÉLÉMENTAIRE 293 RUE PYRENEES","Name": "","Description": "","Latitude":48.8693522,"Longitude": 2.3948174},
{"__type": "VEMaps.PinData","Title": "ECOLE POLYVALENTE 36 RUE PIAT","Name": "","Description": "","Latitude":48.8723106,"Longitude": 2.3847414},
{"__type": "VEMaps.PinData","Title": "ECOLE POLYVALENTE 51 BD DAVOUT","Name": "","Description": "","Latitude":48.8511631,"Longitude": 2.4109559},
{"__type": "VEMaps.PinData","Title": "ÉCOLE POLYVALENTE 9 RUE DES TOURELLES","Name": "","Description": "","Latitude":48.8747054,"Longitude": 2.4042783},
{"__type": "VEMaps.PinData","Title": "ÉCOLE POLYVALENTE 4 RUE PIERRE FONCIN","Name": "","Description": "","Latitude":48.8714261,"Longitude": 2.4090125},
{"__type": "VEMaps.PinData","Title": "ECOLE POLYVALENTE 166 RUE DE PELLEPORT","Name": "","Description": "","Latitude":48.873487,"Longitude": 2.3979199},
{"__type": "VEMaps.PinData","Title": "ECOLE POLYVALENTE 32 RUE OLIVIER METRA","Name": "","Description": "","Latitude":48.8733014,"Longitude": 2.3937673},
{"__type": "VEMaps.PinData","Title": "MAIRIE DU 20E ARRONDISSEMENT","Name": "","Description": "","Latitude":48.8649978,"Longitude": 2.3987533},
{"__type": "VEMaps.PinData","Title": "ANNEXE MAISON DES ASSOCIATIONS","Name": "","Description": "","Latitude":48.8732337,"Longitude": 2.3914541},
{"__type": "VEMaps.PinData","Title": "ANNEXE MAISON DES ASSOCIATIONS","Name": "","Description": "","Latitude":48.8733979,"Longitude": 2.3909505},
{"__type": "VEMaps.PinData","Title": "MAISON DES ASSOCIATIONS RUE FRÉDÉRICK LEMAÎTRE","Name": "","Description": "","Latitude":48.873502,"Longitude": 2.3910141},
{"__type": "VEMaps.PinData","Title": "LOCAUX ASSOCIATIFS 44-46 RUE DES MARAICHERS","Name": "","Description": "","Latitude":48.8510183,"Longitude": 2.4073359}
]}
