{"d":[
{"__type": "VEMaps.PinData","Title": "BIBLIOTHEQUE MUNICIPALE DU LOUVRE","Name": "","Description": "","Latitude":48.860138,"Longitude": 2.3411188},
{"__type": "VEMaps.PinData","Title": "BIBLIOTHEQUE MUNICIPALE LA FONTAINE","Name": "","Description": "","Latitude":48.8624336,"Longitude": 2.3478295},
{"__type": "VEMaps.PinData","Title": "ECOLE MATERNELLE 27 RUE LA SOURDIERE","Name": "","Description": "","Latitude":48.8667748,"Longitude": 2.3328349},
{"__type": "VEMaps.PinData","Title": "ECOLE MATERNELLE 6 RUE SAINT-GERMAIN L'AUXERROIS","Name": "","Description": "","Latitude":48.8582208,"Longitude": 2.3450923},
{"__type": "VEMaps.PinData","Title": "ECOLE ÉLÉMENTAIRE 11 RUE ARGENTEUIL","Name": "","Description": "","Latitude":48.864939,"Longitude": 2.3338453},
{"__type": "VEMaps.PinData","Title": "ECOLE ÉLÉMENTAIRE 15 RUE ARBRE SEC","Name": "","Description": "","Latitude":48.8597031,"Longitude": 2.3419602},
{"__type": "VEMaps.PinData","Title": "ECOLE POLYVALENTE 28 RUE CAMBON","Name": "","Description": "","Latitude":48.8681342,"Longitude": 2.3268589},
{"__type": "VEMaps.PinData","Title": "MAIRIE DU 1ER ARRONDISSEMENT","Name": "","Description": "","Latitude":48.860138,"Longitude": 2.3411188},
{"__type": "VEMaps.PinData","Title": "MAISON PROVISOIRE DES ASSOCIATIONS","Name": "","Description": "","Latitude":48.8626844,"Longitude": 2.3468031},
{"__type": "VEMaps.PinData","Title": "GYMNASE SUZANNE BERLIOUX","Name": "","Description": "","Latitude":48.8715324,"Longitude": 2.3316016},
{"__type": "VEMaps.PinData","Title": "BIBLIOTHEQUE MUNICIPALE CHARLOTTE BELBO","Name": "","Description": "","Latitude":48.8664578,"Longitude": 2.3405837},
{"__type": "VEMaps.PinData","Title": "ECOLE MATERNELLE 11 RUE VIVIENNE","Name": "","Description": "","Latitude":48.86735,"Longitude": 2.3391885},
{"__type": "VEMaps.PinData","Title": "ECOLE MATERNELLE 12 RUE DUSSOUBS","Name": "","Description": "","Latitude":48.8651293,"Longitude": 2.3486038},
{"__type": "VEMaps.PinData","Title": "ECOLE MATERNELLE 221 RUE SAINT-DENIS","Name": "","Description": "","Latitude":48.8676223,"Longitude": 2.3516106},
{"__type": "VEMaps.PinData","Title": "ECOLE ÉLÉMENTAIRE 3 RUE JUSSIENNE","Name": "","Description": "","Latitude":48.864875,"Longitude": 2.345026},
{"__type": "VEMaps.PinData","Title": "ECOLE ÉLÉMENTAIRE 42 RUE DUSSOUBS","Name": "","Description": "","Latitude":48.8672653,"Longitude": 2.3497344},
{"__type": "VEMaps.PinData","Title": "ECOLE ÉLÉMENTAIRE 6 RUE DE LOUVOIS","Name": "","Description": "","Latitude":48.867878,"Longitude": 2.338017},
{"__type": "VEMaps.PinData","Title": "ECOLE POLYVALENTE 20 RUE ETIENNE MARCEL","Name": "","Description": "","Latitude":48.8641239,"Longitude": 2.3483981},
{"__type": "VEMaps.PinData","Title": "ECOLE POLYVALENTE 5 RUE BEAUREGARD","Name": "","Description": "","Latitude":48.8692652,"Longitude": 2.3483438},
{"__type": "VEMaps.PinData","Title": "MAIRIE DU 2E ARRONDISSEMENT","Name": "","Description": "","Latitude":48.866806,"Longitude": 2.3403472},
{"__type": "VEMaps.PinData","Title": "MAISON DES ASSOCIATIONS RUE GRENETA","Name": "","Description": "","Latitude":48.8650784,"Longitude": 2.3506374},
{"__type": "VEMaps.PinData","Title": "GYMNASE JEAN DAME","Name": "","Description": "","Latitude":48.8665875,"Longitude": 2.3452301},
{"__type": "VEMaps.PinData","Title": "BIBLIOTHEQUE MARGUERITE AUDOUX","Name": "","Description": "","Latitude":48.8635263,"Longitude": 2.3601993},
{"__type": "VEMaps.PinData","Title": "ECOLE MATERNELLE 25 RUE CHAPON","Name": "","Description": "","Latitude":48.8642519,"Longitude": 2.3551473},
{"__type": "VEMaps.PinData","Title": "ECOLE MATERNELLE 5 RUE BRANTOME","Name": "","Description": "","Latitude":48.8618792,"Longitude": 2.3527998},
{"__type": "VEMaps.PinData","Title": "ECOLE MATERNELLE 52 RUE TURENNE","Name": "","Description": "","Latitude":48.8583946,"Longitude": 2.364506},
{"__type": "VEMaps.PinData","Title": "ECOLE MATERNELLE 6 RUE PAUL DUBOIS","Name": "","Description": "","Latitude":48.8656045,"Longitude": 2.3616199},
{"__type": "VEMaps.PinData","Title": "ECOLE MATERNELLE 7 RUE PERLE","Name": "","Description": "","Latitude":48.860169,"Longitude": 2.360188},
{"__type": "VEMaps.PinData","Title": "ECOLE ÉLÉMENTAIRE 3 RUE BERANGER","Name": "","Description": "","Latitude":48.8650843,"Longitude": 2.3642931},
{"__type": "VEMaps.PinData","Title": "ECOLE ÉLÉMENTAIRE 54 RUE TURENNE","Name": "","Description": "","Latitude":48.8586081,"Longitude": 2.3647036},
{"__type": "VEMaps.PinData","Title": "ECOLE ÉLÉMENTAIRE 6 RUE VAUCANSON","Name": "","Description": "","Latitude":48.8670651,"Longitude": 2.3567355},
{"__type": "VEMaps.PinData","Title": "ECOLE ÉLÉMENTAIRE 8 RUE VERTUS","Name": "","Description": "","Latitude":48.8636192,"Longitude": 2.3574791},
{"__type": "VEMaps.PinData","Title": "ECOLE ÉLÉMENTAIRE 10 B RUE QUATRE FILS","Name": "","Description": "","Latitude":48.8634799,"Longitude": 2.3591145},
{"__type": "VEMaps.PinData","Title": "ECOLE POLYVALENTE 211 RUE SAINT-MARTIN","Name": "","Description": "","Latitude":48.863356,"Longitude": 2.35256},
{"__type": "VEMaps.PinData","Title": "MAIRIE DU 3E ARRONDISSEMENT","Name": "","Description": "","Latitude":48.8637558,"Longitude": 2.3613364},
{"__type": "VEMaps.PinData","Title": "MAISON DES ASSOCIATIONS DU 3ÈME ARRONDISSEMENT MADELEINE REBERIOUX","Name": "","Description": "","Latitude":48.8640521,"Longitude": 2.3623013},
{"__type": "VEMaps.PinData","Title": "SALLES ASSOCIATIVES SILVA MONFORT","Name": "","Description": "","Latitude":48.8577078,"Longitude": 2.3607303},
{"__type": "VEMaps.PinData","Title": "GYMNASE DU CARREAU DU TEMPLE","Name": "","Description": "","Latitude":48.8638829,"Longitude": 2.3627554},
{"__type": "VEMaps.PinData","Title": "GYMNASE MICHEL LE COMTE","Name": "","Description": "","Latitude":48.8621959,"Longitude": 2.3562871},
{"__type": "VEMaps.PinData","Title": "LOCAL DU CONSEIL DE LA JEUNESSE RUE CAFFARELLI","Name": "","Description": "","Latitude":48.8636596,"Longitude": 2.3619174},
{"__type": "VEMaps.PinData","Title": "BIBLIOTHEQUE MUNICIPALE BAUDOYER","Name": "","Description": "","Latitude":48.8559279,"Longitude": 2.3553172},
{"__type": "VEMaps.PinData","Title": "BIBLIOTHEQUE MUNICIPALE ISLE SAINT-LOUIS","Name": "","Description": "","Latitude":48.8515183,"Longitude": 2.3573375},
{"__type": "VEMaps.PinData","Title": "ECOLE MATERNELLE 12 PL VOSGES","Name": "","Description": "","Latitude":48.8551664,"Longitude": 2.3663657},
{"__type": "VEMaps.PinData","Title": "ECOLE MATERNELLE 18 RUE POULLETIER","Name": "","Description": "","Latitude":48.8516315,"Longitude": 2.3585374},
{"__type": "VEMaps.PinData","Title": "ECOLE MATERNELLE 4 RUE FAUCONNIER","Name": "","Description": "","Latitude":48.8537107,"Longitude": 2.3596707},
{"__type": "VEMaps.PinData","Title": "ECOLE MATERNELLE 40 RUE ARCHIVES","Name": "","Description": "","Latitude":48.8590855,"Longitude": 2.3558647},
{"__type": "VEMaps.PinData","Title": "ECOLE ÉLÉMENTAIRE 9 RUE MOUSSY","Name": "","Description": "","Latitude":48.858459,"Longitude": 2.355342},
{"__type": "VEMaps.PinData","Title": "ANNEXE ECOLE ÉLÉMENTAIRE DU 21 RUE SAINT LOUIS EN L'ILE","Name": "","Description": "","Latitude":48.8519029,"Longitude": 2.3586215},
{"__type": "VEMaps.PinData","Title": "ECOLE ÉLÉMENTAIRE 15 RUE NEUVE SAINT-PIERRE","Name": "","Description": "","Latitude":48.8538891,"Longitude": 2.3631323},
{"__type": "VEMaps.PinData","Title": "ECOLE ÉLÉMENTAIRE 16 RUE RENARD","Name": "","Description": "","Latitude":48.8591489,"Longitude": 2.3534007},
{"__type": "VEMaps.PinData","Title": "ECOLE ÉLÉMENTAIRE 21 RUE DES TOURNELLES","Name": "","Description": "","Latitude":48.8546661,"Longitude": 2.3673315},
{"__type": "VEMaps.PinData","Title": "ECOLE ÉLÉMENTAIRE 21 RUE SAINT-LOUIS EN L'ILE","Name": "","Description": "","Latitude":48.8515183,"Longitude": 2.3573375},
{"__type": "VEMaps.PinData","Title": "ECOLE ÉLÉMENTAIRE 22 RUE AVE MARIA","Name": "","Description": "","Latitude":48.8526475,"Longitude": 2.3605469},
{"__type": "VEMaps.PinData","Title": "ECOLE POLYVALENTE 10 RUE HOSPITALIERES SAINT-GERVAIS","Name": "","Description": "","Latitude":48.8580814,"Longitude": 2.3590459},
{"__type": "VEMaps.PinData","Title": "ECOLE POLYVALENTE 11 RUE SAINT-MERRI","Name": "","Description": "","Latitude":48.8593385,"Longitude": 2.3529557},
{"__type": "VEMaps.PinData","Title": "MAIRIE DU 4E ARRONDISSEMENT","Name": "","Description": "","Latitude":48.8559279,"Longitude": 2.3553172},
{"__type": "VEMaps.PinData","Title": "ANNEXE MAIRIE D'ARRONDISSEMENT DU 4E BARRES","Name": "","Description": "","Latitude":48.8556373,"Longitude": 2.3555237},
{"__type": "VEMaps.PinData","Title": "MAISON DES ASSOCIATIONS 30 BD HENRI IV","Name": "","Description": "","Latitude":48.8521964,"Longitude": 2.3659378},
{"__type": "VEMaps.PinData","Title": "ESPACE D’ANIMATION DES BLANCS MANTEAUX","Name": "","Description": "","Latitude":48.8582394,"Longitude": 2.3583897},
{"__type": "VEMaps.PinData","Title": "GYMNASE SAINT-MERRI","Name": "","Description": "","Latitude":48.8591489,"Longitude": 2.3534007},
{"__type": "VEMaps.PinData","Title": "CENTRE D'ANIMATION SIMON LE FRANC","Name": "","Description": "","Latitude":48.86008,"Longitude": 2.3535342},
{"__type": "VEMaps.PinData","Title": "LOCAL DU CONSEIL DE LA JEUNESSE RUE FRANCOIS MIRON","Name": "","Description": "","Latitude":48.8558984,"Longitude": 2.3554569},
{"__type": "VEMaps.PinData","Title": "BIBLIOTHEQUE MUNICIPALE L'HEURE JOYEUSE","Name": "","Description": "","Latitude":48.8521289,"Longitude": 2.3452233},
{"__type": "VEMaps.PinData","Title": "BIBLIOTHEQUE RAINER MARIA RILKE","Name": "","Description": "","Latitude":48.8392082,"Longitude": 2.3391601},
{"__type": "VEMaps.PinData","Title": "BIBLIOTHEQUE-DISCOTHEQUE MUNICIPALE BUFFON","Name": "","Description": "","Latitude":48.8425674,"Longitude": 2.3619117},
{"__type": "VEMaps.PinData","Title": "BIBLIOTHEQUE-DISCOTHEQUE MUNICIPALE MOUFFETARD-CONTRESCARPE","Name": "","Description": "","Latitude":48.8422977,"Longitude": 2.3496693},
{"__type": "VEMaps.PinData","Title": "CONSERVATOIRE MUNICIPAL GABRIEL FAURÉ","Name": "","Description": "","Latitude":48.8500116,"Longitude": 2.3519897},
{"__type": "VEMaps.PinData","Title": "ECOLE MATERNELLE 10 RUE SOMMERARD","Name": "","Description": "","Latitude":48.8498332,"Longitude": 2.3471668},
{"__type": "VEMaps.PinData","Title": "ECOLE MATERNELLE 15 BIS RUE BUFFON","Name": "","Description": "","Latitude":48.8425674,"Longitude": 2.3619117},
{"__type": "VEMaps.PinData","Title": "ECOLE MATERNELLE 22 RUE LYONNAIS","Name": "","Description": "","Latitude":48.8385062,"Longitude": 2.3464906},
{"__type": "VEMaps.PinData","Title": "ECOLE MATERNELLE 23 RUE CUJAS","Name": "","Description": "","Latitude":48.8480896,"Longitude": 2.3419078},
{"__type": "VEMaps.PinData","Title": "ECOLE MATERNELLE 242 RUE SAINT-JACQUES","Name": "","Description": "","Latitude":48.8441489,"Longitude": 2.3419384},
{"__type": "VEMaps.PinData","Title": "ECOLE MATERNELLE 27 RUE POISSY","Name": "","Description": "","Latitude":48.8486511,"Longitude": 2.3523252},
{"__type": "VEMaps.PinData","Title": "ECOLE MATERNELLE 29 RUE MOUFFETARD","Name": "","Description": "","Latitude":48.8440089,"Longitude": 2.3494211},
{"__type": "VEMaps.PinData","Title": "ECOLE MATERNELLE 97 RUE MOUFFETARD","Name": "","Description": "","Latitude":48.8414567,"Longitude": 2.3496637},
{"__type": "VEMaps.PinData","Title": "ECOLE ÉLÉMENTAIRE 41 RUE ARBALETE","Name": "","Description": "","Latitude":48.8394534,"Longitude": 2.3465127},
{"__type": "VEMaps.PinData","Title": "ANNEXE ECOLE ÉLÉMENTAIRE DU 21 RUE BUFFON","Name": "","Description": "","Latitude":48.8428084,"Longitude": 2.3623568},
{"__type": "VEMaps.PinData","Title": "ECOLE ÉLÉMENTAIRE 10 RUE ROLLIN","Name": "","Description": "","Latitude":48.8447842,"Longitude": 2.3506583},
{"__type": "VEMaps.PinData","Title": "ECOLE ÉLÉMENTAIRE 14 RUE VICTOR COUSIN","Name": "","Description": "","Latitude":48.8475443,"Longitude": 2.342163},
{"__type": "VEMaps.PinData","Title": "ECOLE ÉLÉMENTAIRE 19 RUE BOULANGERS","Name": "","Description": "","Latitude":48.8458415,"Longitude": 2.353043},
{"__type": "VEMaps.PinData","Title": "ECOLE ÉLÉMENTAIRE 2 RUE PIERRE BROSSOLETTE","Name": "","Description": "","Latitude":48.84252,"Longitude": 2.346568},
{"__type": "VEMaps.PinData","Title": "ECOLE ÉLÉMENTAIRE 21 RUE BUFFON","Name": "","Description": "","Latitude":48.8424743,"Longitude": 2.3611549},
{"__type": "VEMaps.PinData","Title": "ECOLE ÉLÉMENTAIRE 21 RUE PONTOISE","Name": "","Description": "","Latitude":48.8487275,"Longitude": 2.3512113},
{"__type": "VEMaps.PinData","Title": "ECOLE ÉLÉMENTAIRE 24 RUE CARDINAL LEMOINE","Name": "","Description": "","Latitude":48.848239,"Longitude": 2.3532343},
{"__type": "VEMaps.PinData","Title": "ECOLE ÉLÉMENTAIRE 250 B RUE SAINT-JACQUES","Name": "","Description": "","Latitude":48.8438094,"Longitude": 2.3416932},
{"__type": "VEMaps.PinData","Title": "ECOLE ÉLÉMENTAIRE 28 RUE SAINT-JACQUES","Name": "","Description": "","Latitude":48.8513967,"Longitude": 2.3458247},
{"__type": "VEMaps.PinData","Title": "MAIRIE DU 5E ARRONDISSEMENT","Name": "","Description": "","Latitude":48.8465518,"Longitude": 2.3444932},
{"__type": "VEMaps.PinData","Title": "MAISON DES ASSOCIATIONS 4 RUE DES ARENES","Name": "","Description": "","Latitude":48.845088,"Longitude": 2.3542504},
{"__type": "VEMaps.PinData","Title": "GYMNASE AMYOT","Name": "","Description": "","Latitude":48.8434222,"Longitude": 2.3475568},
{"__type": "VEMaps.PinData","Title": "GYMNASE BUFFON","Name": "","Description": "","Latitude":48.8426068,"Longitude": 2.3620307},
{"__type": "VEMaps.PinData","Title": "GYMNASE DES PATRIARCHES","Name": "","Description": "","Latitude":48.8404453,"Longitude": 2.3507914},
{"__type": "VEMaps.PinData","Title": "GYMNASE ORTOLAN","Name": "","Description": "","Latitude":48.8432305,"Longitude": 2.3501878},
{"__type": "VEMaps.PinData","Title": "GYMNASE POLIVEAU","Name": "","Description": "","Latitude":48.839911,"Longitude": 2.3576733},
{"__type": "VEMaps.PinData","Title": "CENTRE D'ANIMATION ARRAS","Name": "","Description": "","Latitude":48.8466107,"Longitude": 2.3516157},
{"__type": "VEMaps.PinData","Title": "CENTRE D'ANIMATION LES ATELIERS CENSIER","Name": "","Description": "","Latitude":48.8409412,"Longitude": 2.3546834},
{"__type": "VEMaps.PinData","Title": "BIBLIOTHEQUE-DISCOTHEQUE MUNICIPALE ANDRE MALRAUX","Name": "","Description": "","Latitude":48.8479098,"Longitude": 2.3277436},
{"__type": "VEMaps.PinData","Title": "CONSERVATOIRE MUNICIPAL JP RAMEAU","Name": "","Description": "","Latitude":48.8519482,"Longitude": 2.3352732},
{"__type": "VEMaps.PinData","Title": "ECOLE MATERNELLE 16 RUE SAINT-BENOIT","Name": "","Description": "","Latitude":48.854822,"Longitude": 2.3328985},
{"__type": "VEMaps.PinData","Title": "ECOLE MATERNELLE 39 RUE SAINT-ANDRE DES ARTS","Name": "","Description": "","Latitude":48.8532887,"Longitude": 2.3413316},
{"__type": "VEMaps.PinData","Title": "ECOLE MATERNELLE 40 RUE MADAME","Name": "","Description": "","Latitude":48.8493024,"Longitude": 2.3316207},
{"__type": "VEMaps.PinData","Title": "ECOLE MATERNELLE 6 RUE LITTRE","Name": "","Description": "","Latitude":48.8455047,"Longitude": 2.3238075},
{"__type": "VEMaps.PinData","Title": "ECOLE ÉLÉMENTAIRE 42 RUE MADAME","Name": "","Description": "","Latitude":48.8491555,"Longitude": 2.3316399},
{"__type": "VEMaps.PinData","Title": "ECOLE ÉLÉMENTAIRE 6 RUE LITTRE","Name": "","Description": "","Latitude":48.8455047,"Longitude": 2.3238075},
{"__type": "VEMaps.PinData","Title": "ECOLE ÉLÉMENTAIRE 7 RUE JARDINET","Name": "","Description": "","Latitude":48.8526538,"Longitude": 2.3400269},
{"__type": "VEMaps.PinData","Title": "ECOLE ÉLÉMENTAIRE 9 RUE VAUGIRARD","Name": "","Description": "","Latitude":48.8489345,"Longitude": 2.3398368},
{"__type": "VEMaps.PinData","Title": "ECOLE ÉLÉMENTAIRE 12 RUE SAINT-BENOIT","Name": "","Description": "","Latitude":48.8551627,"Longitude": 2.3331475},
{"__type": "VEMaps.PinData","Title": "MAIRIE DU 6E ARRONDISSEMENT","Name": "","Description": "","Latitude":48.8505347,"Longitude": 2.3327727},
{"__type": "VEMaps.PinData","Title": "CENTRE ANDRE MALRAUX (LOCAUX GÉRÉS PAR LES SERVICES DE LA MAIRIE DU 6ÈME)","Name": "","Description": "","Latitude":48.8479098,"Longitude": 2.3277436},
{"__type": "VEMaps.PinData","Title": "MAISON DES ASSOCIATIONS RUE SAINT-ANDRÉ DES ARTS","Name": "","Description": "","Latitude":48.853533,"Longitude": 2.3394132},
{"__type": "VEMaps.PinData","Title": "CRÈCHE FAMILIALE (ANTENNE) 6 RUE FELIBIEN","Name": "","Description": "","Latitude":48.8517518,"Longitude": 2.3366696},
{"__type": "VEMaps.PinData","Title": "GYMNASE SAINT-GERMAIN","Name": "","Description": "","Latitude":48.8517866,"Longitude": 2.3358702},
{"__type": "VEMaps.PinData","Title": "GYMNASE VAUGIRARD LITTRE","Name": "","Description": "","Latitude":48.8459568,"Longitude": 2.3232245},
{"__type": "VEMaps.PinData","Title": "ANNEXE CENTRE D’ANIMATION SAINT MICHEL","Name": "","Description": "","Latitude":48.8512179,"Longitude": 2.3416902},
{"__type": "VEMaps.PinData","Title": "CENTRE D'ANIMATION SAINT-MICHEL","Name": "","Description": "","Latitude":48.8534712,"Longitude": 2.3437585},
{"__type": "VEMaps.PinData","Title": "BIBLIOTHEQUE-DISCOTHEQUE MUNICIPALE AMELIE","Name": "","Description": "","Latitude":48.8580522,"Longitude": 2.3089662},
{"__type": "VEMaps.PinData","Title": "BIBLIOTHEQUE-DISCOTHEQUE MUNICIPALE SAINT-SIMON","Name": "","Description": "","Latitude":48.8568258,"Longitude": 2.3200337},
{"__type": "VEMaps.PinData","Title": "CONSERVATOIRE MUNICIPAL ERIK SATIE","Name": "","Description": "","Latitude":48.8611308,"Longitude": 2.3069929},
{"__type": "VEMaps.PinData","Title": "ECOLE MATERNELLE 117 B RUE SAINT-DOMINIQUE","Name": "","Description": "","Latitude":48.8590216,"Longitude": 2.3042704},
{"__type": "VEMaps.PinData","Title": "ECOLE MATERNELLE 14 RUE EBLE","Name": "","Description": "","Latitude":48.8489372,"Longitude": 2.3128817},
{"__type": "VEMaps.PinData","Title": "ECOLE MATERNELLE 17 RUE VERNEUIL","Name": "","Description": "","Latitude":48.8575432,"Longitude": 2.3304999},
{"__type": "VEMaps.PinData","Title": "ECOLE MATERNELLE 28 AV RAPP","Name": "","Description": "","Latitude":48.8586928,"Longitude": 2.3003134},
{"__type": "VEMaps.PinData","Title": "ECOLE MATERNELLE 48 RUE VANEAU","Name": "","Description": "","Latitude":48.8511904,"Longitude": 2.3191107},
{"__type": "VEMaps.PinData","Title": "ECOLE MATERNELLE 8 RUE CHOMEL","Name": "","Description": "","Latitude":48.8521226,"Longitude": 2.3255137},
{"__type": "VEMaps.PinData","Title": "ECOLE ÉLÉMENTAIRE 42 AV DUQUESNE","Name": "","Description": "","Latitude":48.8494215,"Longitude": 2.3132936},
{"__type": "VEMaps.PinData","Title": "ECOLE ÉLÉMENTAIRE 8 RUE CHOMEL","Name": "","Description": "","Latitude":48.8521226,"Longitude": 2.3255137},
{"__type": "VEMaps.PinData","Title": "ECOLE ÉLÉMENTAIRE 1 RUE GENERAL CAMOU","Name": "","Description": "","Latitude":48.858841,"Longitude": 2.2994949},
{"__type": "VEMaps.PinData","Title": "ECOLE ÉLÉMENTAIRE 10 AV LA MOTTE-PICQUET","Name": "","Description": "","Latitude":48.8569082,"Longitude": 2.309097},
{"__type": "VEMaps.PinData","Title": "ECOLE ÉLÉMENTAIRE 14 RUE EBLE","Name": "","Description": "","Latitude":48.8489372,"Longitude": 2.3128817},
{"__type": "VEMaps.PinData","Title": "ECOLE POLYVALENTE 27 RUE LAS CASES","Name": "","Description": "","Latitude":48.8589413,"Longitude": 2.3187603},
{"__type": "VEMaps.PinData","Title": "MAIRIE DU 7E ARRONDISSEMENT","Name": "","Description": "","Latitude":48.8568258,"Longitude": 2.3200337},
{"__type": "VEMaps.PinData","Title": "MAISON DES ASSOCIATIONS 4 RUE AMELIE","Name": "","Description": "","Latitude":48.8594114,"Longitude": 2.3072933},
{"__type": "VEMaps.PinData","Title": "SALLES JEAN NICOT","Name": "","Description": "","Latitude":48.8607749,"Longitude": 2.3073172},
{"__type": "VEMaps.PinData","Title": "GYMNASE CAMOU","Name": "","Description": "","Latitude":48.858371,"Longitude": 2.2992803},
{"__type": "VEMaps.PinData","Title": "GYMNASE CLER","Name": "","Description": "","Latitude":48.8587466,"Longitude": 2.3052309},
{"__type": "VEMaps.PinData","Title": "ANNEXE BOURDONNAIS DU CENTRE D’ANIMATION SAINT-MICHEL","Name": "","Description": "","Latitude":48.8552765,"Longitude": 2.3041493},
{"__type": "VEMaps.PinData","Title": "BIBLIOTHEQUE MUNICIPALE COURCELLES","Name": "","Description": "","Latitude":48.8776003,"Longitude": 2.3029073},
{"__type": "VEMaps.PinData","Title": "BIBLIOTHEQUE-DISCOTHEQUE MUNICIPALE DE L'EUROPE","Name": "","Description": "","Latitude":48.8777165,"Longitude": 2.3175378},
{"__type": "VEMaps.PinData","Title": "CONSERVATOIRE MUNICIPAL CAMILLE SAINT-SAENS","Name": "","Description": "","Latitude":48.8752782,"Longitude": 2.3047225},
{"__type": "VEMaps.PinData","Title": "ECOLE MATERNELLE 12 RUE BIENFAISANCE","Name": "","Description": "","Latitude":48.8768186,"Longitude": 2.3199784},
{"__type": "VEMaps.PinData","Title": "ECOLE MATERNELLE 16 RUE ROQUEPINE","Name": "","Description": "","Latitude":48.8733069,"Longitude": 2.3186293},
{"__type": "VEMaps.PinData","Title": "ECOLE MATERNELLE 7 RUE MOSCOU","Name": "","Description": "","Latitude":48.8801575,"Longitude": 2.3258976},
{"__type": "VEMaps.PinData","Title": "ECOLE ÉLÉMENTAIRE 4 RUE FLORENCE","Name": "","Description": "","Latitude":48.8823342,"Longitude": 2.3255861},
{"__type": "VEMaps.PinData","Title": "ECOLE ÉLÉMENTAIRE 12 BIS RUE BIENFAISANCE","Name": "","Description": "","Latitude":48.8768186,"Longitude": 2.3199784},
{"__type": "VEMaps.PinData","Title": "ECOLE ÉLÉMENTAIRE 18 RUE SURENE","Name": "","Description": "","Latitude":48.8711421,"Longitude": 2.3205499},
{"__type": "VEMaps.PinData","Title": "ANNEXE ECOLE POLYVALENTE DU 15 RUE DE MONCEAU","Name": "","Description": "","Latitude":48.8755622,"Longitude": 2.3071506},
{"__type": "VEMaps.PinData","Title": "ECOLE POLYVALENTE 10 RUE PAUL BAUDRY","Name": "","Description": "","Latitude":48.8724224,"Longitude": 2.307529},
{"__type": "VEMaps.PinData","Title": "ECOLE POLYVALENTE 15 RUE MONCEAU","Name": "","Description": "","Latitude":48.8758626,"Longitude": 2.3071278},
{"__type": "VEMaps.PinData","Title": "ECOLE POLYVALENTE 8 RUE ROBERT ESTIENNE","Name": "","Description": "","Latitude":48.8686913,"Longitude": 2.305038},
{"__type": "VEMaps.PinData","Title": "MAIRIE DU 8E ARRONDISSEMENT","Name": "","Description": "","Latitude":48.8777165,"Longitude": 2.3175378},
{"__type": "VEMaps.PinData","Title": "MAISON DES ASSOCIATIONS RUE VERNET","Name": "","Description": "","Latitude":48.8718917,"Longitude": 2.2981633},
{"__type": "VEMaps.PinData","Title": "GYMNASE ROQUEPINE","Name": "","Description": "","Latitude":48.8733366,"Longitude": 2.3183514},
{"__type": "VEMaps.PinData","Title": "CENTRE D'ANIMATION ESPACE BEAUJON","Name": "","Description": "","Latitude":48.8752782,"Longitude": 2.3047225},
{"__type": "VEMaps.PinData","Title": "BIBLIOTHEQUE CHAPTAL","Name": "","Description": "","Latitude":48.8811011,"Longitude": 2.33234},
{"__type": "VEMaps.PinData","Title": "BIBLIOTHEQUE MUNICIPALE DROUOT","Name": "","Description": "","Latitude":48.8734499,"Longitude": 2.3404399},
{"__type": "VEMaps.PinData","Title": "BIBLIOTHEQUE-DISCOTHEQUE MUNICIPALE VALEYRE","Name": "","Description": "","Latitude":48.8781136,"Longitude": 2.3449354},
{"__type": "VEMaps.PinData","Title": "CONSERVATOIRE MUNICIPAL NADIA ET LILI BOULANGER","Name": "","Description": "","Latitude":48.8774789,"Longitude": 2.344568},
{"__type": "VEMaps.PinData","Title": "ECOLE MATERNELLE 11 RUE GRANGE BATELIERE","Name": "","Description": "","Latitude":48.8731274,"Longitude": 2.3422006},
{"__type": "VEMaps.PinData","Title": "ECOLE MATERNELLE 12 RUE CHAPTAL","Name": "","Description": "","Latitude":48.8808478,"Longitude": 2.3335536},
{"__type": "VEMaps.PinData","Title": "ECOLE MATERNELLE 12 RUE CLAUZEL","Name": "","Description": "","Latitude":48.8791636,"Longitude": 2.3385549},
{"__type": "VEMaps.PinData","Title": "ECOLE MATERNELLE 22 RUE ROCHECHOUART","Name": "","Description": "","Latitude":48.8779178,"Longitude": 2.3448663},
{"__type": "VEMaps.PinData","Title": "ECOLE MATERNELLE 30 RUE RODIER","Name": "","Description": "","Latitude":48.8786285,"Longitude": 2.3429776},
{"__type": "VEMaps.PinData","Title": "ECOLE MATERNELLE 34 RUE BRUXELLES","Name": "","Description": "","Latitude":48.8829284,"Longitude": 2.328718},
{"__type": "VEMaps.PinData","Title": "ECOLE MATERNELLE 34 RUE BUFFAULT","Name": "","Description": "","Latitude":48.8764446,"Longitude": 2.3424611},
{"__type": "VEMaps.PinData","Title": "ECOLE MATERNELLE 5 RUE MILTON","Name": "","Description": "","Latitude":48.8775761,"Longitude": 2.3407478},
{"__type": "VEMaps.PinData","Title": "ECOLE MATERNELLE 68 RUE DE ROCHECHOUART","Name": "","Description": "","Latitude":48.8813221,"Longitude": 2.3465635},
{"__type": "VEMaps.PinData","Title": "ECOLE MATERNELLE 9 BIS RUE BLANCHE","Name": "","Description": "","Latitude":48.8779855,"Longitude": 2.3318101},
{"__type": "VEMaps.PinData","Title": "ECOLE ÉLÉMENTAIRE 32 RUE BRUXELLES","Name": "","Description": "","Latitude":48.882955,"Longitude": 2.3288386},
{"__type": "VEMaps.PinData","Title": "ECOLE ÉLÉMENTAIRE 32 RUE BUFFAULT","Name": "","Description": "","Latitude":48.8763052,"Longitude": 2.3423889},
{"__type": "VEMaps.PinData","Title": "ECOLE ÉLÉMENTAIRE 45 RUE DE LA TOUR D’AUVERGNE","Name": "","Description": "","Latitude":48.8797379,"Longitude": 2.3409384},
{"__type": "VEMaps.PinData","Title": "ECOLE ÉLÉMENTAIRE 5 RUE MILTON","Name": "","Description": "","Latitude":48.8775761,"Longitude": 2.3407478},
{"__type": "VEMaps.PinData","Title": "ECOLE ÉLÉMENTAIRE 9 RUE BLANCHE","Name": "","Description": "","Latitude":48.8779855,"Longitude": 2.3318101},
{"__type": "VEMaps.PinData","Title": "ECOLE ÉLÉMENTAIRE 12 RUE CHAPTAL","Name": "","Description": "","Latitude":48.8808478,"Longitude": 2.3335536},
{"__type": "VEMaps.PinData","Title": "ECOLE ÉLÉMENTAIRE 15 RUE TURGOT","Name": "","Description": "","Latitude":48.8803593,"Longitude": 2.3452353},
{"__type": "VEMaps.PinData","Title": "ECOLE ÉLÉMENTAIRE 16 RUE VICTOIRE","Name": "","Description": "","Latitude":48.8751663,"Longitude": 2.3392258},
{"__type": "VEMaps.PinData","Title": "ECOLE ÉLÉMENTAIRE 21 RUE MILTON","Name": "","Description": "","Latitude":48.8787605,"Longitude": 2.3411733},
{"__type": "VEMaps.PinData","Title": "ECOLE ELEMENTAIRE 10 RUE DE CLICHY","Name": "","Description": "","Latitude":48.8777392,"Longitude": 2.3305537},
{"__type": "VEMaps.PinData","Title": "MAIRIE DU 9E ARRONDISSEMENT","Name": "","Description": "","Latitude":48.8726532,"Longitude": 2.3404013},
{"__type": "VEMaps.PinData","Title": "PARKING DE L'HOTEL DROUOT 12-14 RUE CHAUCHAT","Name": "","Description": "","Latitude":48.873225,"Longitude": 2.3395667},
{"__type": "VEMaps.PinData","Title": "MAISON DES ASSOCIATIONS RUE VICTOR MASSÉ","Name": "","Description": "","Latitude":48.8809697,"Longitude": 2.3369342},
{"__type": "VEMaps.PinData","Title": "ESPACE ASSOCIATIF CHATEAUDUN","Name": "","Description": "","Latitude":48.8762008,"Longitude": 2.3364452},
{"__type": "VEMaps.PinData","Title": "GYMNASE PAUL GAUGUIN","Name": "","Description": "","Latitude":48.8791857,"Longitude": 2.3421803},
{"__type": "VEMaps.PinData","Title": "GYMNASE VALEYRE","Name": "","Description": "","Latitude":48.8781136,"Longitude": 2.3449354},
{"__type": "VEMaps.PinData","Title": "CENTRE D'ANIMATION VALEYRE","Name": "","Description": "","Latitude":48.8781136,"Longitude": 2.3449354},
{"__type": "VEMaps.PinData","Title": "ANTENNE JEUNES NEUVIEME","Name": "","Description": "","Latitude":48.8755578,"Longitude": 2.3427216},
{"__type": "VEMaps.PinData","Title": "BIBLIOTHEQUE MUNICIPALE CHATEAU D'EAU","Name": "","Description": "","Latitude":48.871749,"Longitude": 2.3572353},
{"__type": "VEMaps.PinData","Title": "BIBLIOTHEQUE-DISCOTHEQUE MUNICIPALE FRANCOIS VILLON","Name": "","Description": "","Latitude":48.8771491,"Longitude": 2.3707509},
{"__type": "VEMaps.PinData","Title": "BIBLIOTHEQUE-DISCOTHEQUE MUNICIPALE LANCRY","Name": "","Description": "","Latitude":48.869387,"Longitude": 2.360108},
{"__type": "VEMaps.PinData","Title": "CONSERVATOIRE MUNICIPAL HECTOR BERLIOZ","Name": "","Description": "","Latitude":48.8718249,"Longitude": 2.3583399},
{"__type": "VEMaps.PinData","Title": "ECOLE MATERNELLE 11 RUE LEON SCHWARTZENBERG","Name": "","Description": "","Latitude":48.8752362,"Longitude": 2.3546508},
{"__type": "VEMaps.PinData","Title": "ECOLE MATERNELLE 155 AV PARMENTIER","Name": "","Description": "","Latitude":48.8716858,"Longitude": 2.3697674},
{"__type": "VEMaps.PinData","Title": "ECOLE MATERNELLE 18 RUE HOPITAL SAINT-LOUIS","Name": "","Description": "","Latitude":48.8755343,"Longitude": 2.3645734},
{"__type": "VEMaps.PinData","Title": "ECOLE MATERNELLE 20 RUE PARADIS","Name": "","Description": "","Latitude":48.8748395,"Longitude": 2.3537323},
{"__type": "VEMaps.PinData","Title": "ECOLE MATERNELLE 23 PAS RECOLLETS","Name": "","Description": "","Latitude":48.8747249,"Longitude": 2.3607992},
{"__type": "VEMaps.PinData","Title": "ECOLE MATERNELLE 28 RUE ECLUSES SAINT-MARTIN","Name": "","Description": "","Latitude":48.8773714,"Longitude": 2.3662381},
{"__type": "VEMaps.PinData","Title": "ECOLE MATERNELLE 3 RUE BELZUNCE","Name": "","Description": "","Latitude":48.8792296,"Longitude": 2.352857},
{"__type": "VEMaps.PinData","Title": "ECOLE MATERNELLE 39 RUE AQUEDUC","Name": "","Description": "","Latitude":48.8825255,"Longitude": 2.364011},
{"__type": "VEMaps.PinData","Title": "ECOLE MATERNELLE 4 RUE PIERRE BULLET","Name": "","Description": "","Latitude":48.8716312,"Longitude": 2.3580968},
{"__type": "VEMaps.PinData","Title": "ECOLE MATERNELLE 49 RUE LOUIS BLANC","Name": "","Description": "","Latitude":48.8824236,"Longitude": 2.3626745},
{"__type": "VEMaps.PinData","Title": "ECOLE MATERNELLE 5 RUE BOY-ZELENSKI","Name": "","Description": "","Latitude":48.8767174,"Longitude": 2.3678892},
{"__type": "VEMaps.PinData","Title": "ECOLE MATERNELLE 6 RUE LEGOUVE","Name": "","Description": "","Latitude":48.8722549,"Longitude": 2.3622551},
{"__type": "VEMaps.PinData","Title": "ECOLE MATERNELLE 9 RUE MARTEL","Name": "","Description": "","Latitude":48.8739648,"Longitude": 2.3529123},
{"__type": "VEMaps.PinData","Title": "ECOLE ÉLÉMENTAIRE 3 RUE BELZUNCE","Name": "","Description": "","Latitude":48.8792296,"Longitude": 2.352857},
{"__type": "VEMaps.PinData","Title": "ECOLE ÉLÉMENTAIRE 33 AV CLAUDE VELLEFAUX","Name": "","Description": "","Latitude":48.8768706,"Longitude": 2.3701514},
{"__type": "VEMaps.PinData","Title": "ECOLE ÉLÉMENTAIRE 34 RUE FAUBOURG SAINT-DENIS","Name": "","Description": "","Latitude":48.871119,"Longitude": 2.353676},
{"__type": "VEMaps.PinData","Title": "ECOLE ÉLÉMENTAIRE 39 RUE AQUEDUC","Name": "","Description": "","Latitude":48.8825255,"Longitude": 2.364011},
{"__type": "VEMaps.PinData","Title": "ECOLE ÉLÉMENTAIRE 49 BIS RUE LOUIS BLANC","Name": "","Description": "","Latitude":48.8824236,"Longitude": 2.3626745},
{"__type": "VEMaps.PinData","Title": "ECOLE ÉLÉMENTAIRE 9 RUE MARTEL","Name": "","Description": "","Latitude":48.8739648,"Longitude": 2.3529123},
{"__type": "VEMaps.PinData","Title": "ECOLE ÉLÉMENTAIRE 5 RUE HOPITAL SAINT LOUIS","Name": "","Description": "","Latitude":48.8748887,"Longitude": 2.3654847},
{"__type": "VEMaps.PinData","Title": "ÉCOLE ÉLÉMENTAIRE 21 RUE SAMBRE ET MEUSE","Name": "","Description": "","Latitude":48.8748568,"Longitude": 2.3717843},
{"__type": "VEMaps.PinData","Title": "ECOLE ELEMENTAIRE 41 RUE DE CHABROL","Name": "","Description": "","Latitude":48.8768303,"Longitude": 2.3529625},
{"__type": "VEMaps.PinData","Title": "ECOLE ÉLÉMENTAIRE 10 RUE EUGENE VARLIN","Name": "","Description": "","Latitude":48.8779188,"Longitude": 2.3651836},
{"__type": "VEMaps.PinData","Title": "ECOLE ÉLÉMENTAIRE 159 AV PARMENTIER","Name": "","Description": "","Latitude":48.8717733,"Longitude": 2.3698829},
{"__type": "VEMaps.PinData","Title": "ECOLE ÉLÉMENTAIRE 17 RUE MARSEILLE","Name": "","Description": "","Latitude":48.8717618,"Longitude": 2.3638557},
{"__type": "VEMaps.PinData","Title": "ECOLE ÉLÉMENTAIRE 19 PAS RECOLLETS","Name": "","Description": "","Latitude":48.8741639,"Longitude": 2.3605305},
{"__type": "VEMaps.PinData","Title": "ECOLE ÉLÉMENTAIRE 200 RUE SAINT-MAUR","Name": "","Description": "","Latitude":48.8724317,"Longitude": 2.3715126},
{"__type": "VEMaps.PinData","Title": "ECOLE ÉLÉMENTAIRE 216 BIS RUE LAFAYETTE","Name": "","Description": "","Latitude":48.8818896,"Longitude": 2.3672043},
{"__type": "VEMaps.PinData","Title": "ECOLE POLYVALENTE 16 RUE VICQ D'AZIR","Name": "","Description": "","Latitude":48.8760763,"Longitude": 2.3705049},
{"__type": "VEMaps.PinData","Title": "ECOLE POLYVALENTE 15 RUE LANCRY","Name": "","Description": "","Latitude":48.8695394,"Longitude": 2.3603311},
{"__type": "VEMaps.PinData","Title": "MAIRIE DU 10E ARRONDISSEMENT","Name": "","Description": "","Latitude":48.871749,"Longitude": 2.3572353},
{"__type": "VEMaps.PinData","Title": "MAISON DES ASSOCIATIONS QUAI DE VALMY","Name": "","Description": "","Latitude":48.8816139,"Longitude": 2.3685937},
{"__type": "VEMaps.PinData","Title": "CRÈCHE COLLECTIVE 6 RUE LÉON SCHWARTZENBERG","Name": "","Description": "","Latitude":48.8753867,"Longitude": 2.354848},
{"__type": "VEMaps.PinData","Title": "GYMNASE CHATEAU LANDON","Name": "","Description": "","Latitude":48.8830839,"Longitude": 2.363826},
{"__type": "VEMaps.PinData","Title": "GYMNASE DE LA GRANGE AUX BELLES","Name": "","Description": "","Latitude":48.8774437,"Longitude": 2.3684156},
{"__type": "VEMaps.PinData","Title": "GYMNASE JEAN VERDIER","Name": "","Description": "","Latitude":48.869387,"Longitude": 2.360108},
{"__type": "VEMaps.PinData","Title": "GYMNASE JEMMAPES","Name": "","Description": "","Latitude":48.8748947,"Longitude": 2.3636982},
{"__type": "VEMaps.PinData","Title": "GYMNASE PARMENTIER","Name": "","Description": "","Latitude":48.8716858,"Longitude": 2.3697674},
{"__type": "VEMaps.PinData","Title": "CENTRE D'ANIMATION ESPACE CHATEAU LANDON","Name": "","Description": "","Latitude":48.8832165,"Longitude": 2.363814},
{"__type": "VEMaps.PinData","Title": "CENTRE D'ANIMATION ESPACE JEMMAPES","Name": "","Description": "","Latitude":48.8748947,"Longitude": 2.3636982},
{"__type": "VEMaps.PinData","Title": "CENTRE D'ANIMATION GRANGE AUX BELLES","Name": "","Description": "","Latitude":48.8767018,"Longitude": 2.3679175},
{"__type": "VEMaps.PinData","Title": "CENTRE D'ANIMATION JEAN VERDIER","Name": "","Description": "","Latitude":48.869387,"Longitude": 2.360108},
{"__type": "VEMaps.PinData","Title": "BIBLIOTHEQUE-DISCOTHEQUE MUNICIPALE FAIDHERBE","Name": "","Description": "","Latitude":48.8515538,"Longitude": 2.3839637},
{"__type": "VEMaps.PinData","Title": "BIBLIOTHEQUE-DISCOTHEQUE-VIDEOTHEQUE MUNICIPALE PARMENTIER","Name": "","Description": "","Latitude":48.860151,"Longitude": 2.3789262},
{"__type": "VEMaps.PinData","Title": "CONSERVATOIRE MUNICIPAL CHARLES MUNCH","Name": "","Description": "","Latitude":48.8610417,"Longitude": 2.3848833},
{"__type": "VEMaps.PinData","Title": "ECOLE MATERNELLE 10 BIS RUE DURANTI","Name": "","Description": "","Latitude":48.8605628,"Longitude": 2.383659},
{"__type": "VEMaps.PinData","Title": "ECOLE MATERNELLE 11 BIS AV PARMENTIER","Name": "","Description": "","Latitude":48.859921,"Longitude": 2.3789006},
{"__type": "VEMaps.PinData","Title": "ECOLE MATERNELLE 111 AV PARMENTIER","Name": "","Description": "","Latitude":48.86798,"Longitude": 2.372282},
{"__type": "VEMaps.PinData","Title": "ECOLE MATERNELLE 13 BD RICHARD LENOIR","Name": "","Description": "","Latitude":48.8560456,"Longitude": 2.3700311},
{"__type": "VEMaps.PinData","Title": "ECOLE MATERNELLE 14 RUE MERLIN","Name": "","Description": "","Latitude":48.8600489,"Longitude": 2.3859133},
{"__type": "VEMaps.PinData","Title": "ECOLE MATERNELLE 144 RUE ROQUETTE","Name": "","Description": "","Latitude":48.8580805,"Longitude": 2.3822529},
{"__type": "VEMaps.PinData","Title": "ECOLE MATERNELLE 18 RUE FAIDHERBE","Name": "","Description": "","Latitude":48.8515538,"Longitude": 2.3839637},
{"__type": "VEMaps.PinData","Title": "ECOLE MATERNELLE 19 RUE ALPHONSE BAUDIN","Name": "","Description": "","Latitude":48.8612117,"Longitude": 2.3700873},
{"__type": "VEMaps.PinData","Title": "ECOLE MATERNELLE 2 PAS BESLAY","Name": "","Description": "","Latitude":48.862913,"Longitude": 2.3731441},
{"__type": "VEMaps.PinData","Title": "ECOLE MATERNELLE 31 RUE GODEFROY CAVAIGNAC","Name": "","Description": "","Latitude":48.8557985,"Longitude": 2.38075},
{"__type": "VEMaps.PinData","Title": "ECOLE MATERNELLE 39 RUE SAINT-BERNARD","Name": "","Description": "","Latitude":48.8531664,"Longitude": 2.3806465},
{"__type": "VEMaps.PinData","Title": "ECOLE MATERNELLE 39 RUE TROIS BORNES","Name": "","Description": "","Latitude":48.867261,"Longitude": 2.3744773},
{"__type": "VEMaps.PinData","Title": "ECOLE MATERNELLE 4 BIS RUE PRESENTATION","Name": "","Description": "","Latitude":48.8708508,"Longitude": 2.3773653},
{"__type": "VEMaps.PinData","Title": "ECOLE MATERNELLE 4 PAS BULLOURDE","Name": "","Description": "","Latitude":48.8545008,"Longitude": 2.3763784},
{"__type": "VEMaps.PinData","Title": "ECOLE MATERNELLE 44 RUE EMILE LEPEU","Name": "","Description": "","Latitude":48.8567157,"Longitude": 2.3882484},
{"__type": "VEMaps.PinData","Title": "ECOLE MATERNELLE 5 IMP BALEINE","Name": "","Description": "","Latitude":48.8672143,"Longitude": 2.3777051},
{"__type": "VEMaps.PinData","Title": "ECOLE MATERNELLE 54 RUE SERVAN","Name": "","Description": "","Latitude":48.8630565,"Longitude": 2.3818251},
{"__type": "VEMaps.PinData","Title": "ECOLE MATERNELLE 6 AV BOUVINES","Name": "","Description": "","Latitude":48.8502712,"Longitude": 2.3965675},
{"__type": "VEMaps.PinData","Title": "ECOLE MATERNELLE 7 PAS PIVER","Name": "","Description": "","Latitude":48.8705385,"Longitude": 2.3744658},
{"__type": "VEMaps.PinData","Title": "ECOLE MATERNELLE 9 RUE POPINCOURT","Name": "","Description": "","Latitude":48.8573519,"Longitude": 2.3774323},
{"__type": "VEMaps.PinData","Title": "ECOLE ÉLÉMENTAIRE 31 RUE SAINT-BERNARD","Name": "","Description": "","Latitude":48.8524695,"Longitude": 2.3810741},
{"__type": "VEMaps.PinData","Title": "ECOLE ÉLÉMENTAIRE 35 RUE GODEFROY CAVAIGNAC","Name": "","Description": "","Latitude":48.8559867,"Longitude": 2.3805733},
{"__type": "VEMaps.PinData","Title": "ECOLE ÉLÉMENTAIRE 39 RUE ALEXANDRE DUMAS","Name": "","Description": "","Latitude":48.8537046,"Longitude": 2.3932983},
{"__type": "VEMaps.PinData","Title": "ECOLE ÉLÉMENTAIRE 39 RUE TROIS BORNES","Name": "","Description": "","Latitude":48.867261,"Longitude": 2.3744773},
{"__type": "VEMaps.PinData","Title": "ECOLE ÉLÉMENTAIRE 4 AV BOUVINES","Name": "","Description": "","Latitude":48.8497889,"Longitude": 2.3962469},
{"__type": "VEMaps.PinData","Title": "ECOLE ÉLÉMENTAIRE 4 RUE KELLER","Name": "","Description": "","Latitude":48.8531901,"Longitude": 2.3769938},
{"__type": "VEMaps.PinData","Title": "ECOLE ÉLÉMENTAIRE 98 AV REPUBLIQUE","Name": "","Description": "","Latitude":48.8637882,"Longitude": 2.382271},
{"__type": "VEMaps.PinData","Title": "ECOLE ÉLÉMENTAIRE 75 BD BELLEVILLE","Name": "","Description": "","Latitude":48.8710861,"Longitude": 2.3777411},
{"__type": "VEMaps.PinData","Title": "ECOLE ÉLÉMENTAIRE 1 RUE PIHET","Name": "","Description": "","Latitude":48.8633534,"Longitude": 2.3740441},
{"__type": "VEMaps.PinData","Title": "ECOLE ÉLÉMENTAIRE 100 AV REPUBLIQUE","Name": "","Description": "","Latitude":48.8637183,"Longitude": 2.3826322},
{"__type": "VEMaps.PinData","Title": "ECOLE ÉLÉMENTAIRE 109 AV PARMENTIER","Name": "","Description": "","Latitude":48.8675891,"Longitude": 2.3726824},
{"__type": "VEMaps.PinData","Title": "ECOLE ÉLÉMENTAIRE 11 BIS AV PARMENTIER","Name": "","Description": "","Latitude":48.859921,"Longitude": 2.3789006},
{"__type": "VEMaps.PinData","Title": "ECOLE ÉLÉMENTAIRE 13 RUE FROMENT","Name": "","Description": "","Latitude":48.8573092,"Longitude": 2.3725696},
{"__type": "VEMaps.PinData","Title": "ECOLE ÉLÉMENTAIRE 14 RUE TITON","Name": "","Description": "","Latitude":48.8514217,"Longitude": 2.3865808},
{"__type": "VEMaps.PinData","Title": "ECOLE ÉLÉMENTAIRE 17 RUE ALPHONSE BAUDIN","Name": "","Description": "","Latitude":48.8610379,"Longitude": 2.3701015},
{"__type": "VEMaps.PinData","Title": "ECOLE ÉLÉMENTAIRE 22 RUE SAINT-MAUR","Name": "","Description": "","Latitude":48.8604509,"Longitude": 2.3819177},
{"__type": "VEMaps.PinData","Title": "ECOLE ÉLÉMENTAIRE 24 RUE SAINT-SEBASTIEN","Name": "","Description": "","Latitude":48.8611637,"Longitude": 2.3695317},
{"__type": "VEMaps.PinData","Title": "ECOLE ÉLÉMENTAIRE 29 RUE SERVAN","Name": "","Description": "","Latitude":48.8608215,"Longitude": 2.3829721},
{"__type": "VEMaps.PinData","Title": "MAIRIE DU 11E ARRONDISSEMENT","Name": "","Description": "","Latitude":48.8579146,"Longitude": 2.3794361},
{"__type": "VEMaps.PinData","Title": "ESPACE JEAN AICARD ","Name": "","Description": "","Latitude":48.8650914,"Longitude": 2.3814948},
{"__type": "VEMaps.PinData","Title": "MAISON DES ASSOCIATIONS RUE DU GÉNÉRAL RENAULT","Name": "","Description": "","Latitude":48.8612641,"Longitude": 2.3784709},
{"__type": "VEMaps.PinData","Title": "SALLES ASSOCIATIVES POLYVALENTES « OLYMPE DE GOUGES »","Name": "","Description": "","Latitude":48.8604229,"Longitude": 2.3853887},
{"__type": "VEMaps.PinData","Title": "GYMNASE CANDIE","Name": "","Description": "","Latitude":48.8513875,"Longitude": 2.3799709},
{"__type": "VEMaps.PinData","Title": "GYMNASE DE LA COUR DES LIONS","Name": "","Description": "","Latitude":48.8606777,"Longitude": 2.3703684},
{"__type": "VEMaps.PinData","Title": "GYMNASE DE LA FONTAINE AU ROI","Name": "","Description": "","Latitude":48.8695285,"Longitude": 2.3785614},
{"__type": "VEMaps.PinData","Title": "GYMNASE GEORGES RIGAL","Name": "","Description": "","Latitude":48.8564792,"Longitude": 2.3941808},
{"__type": "VEMaps.PinData","Title": "GYMNASE MAURICE BERLEMONT","Name": "","Description": "","Latitude":48.8700846,"Longitude": 2.3759812},
{"__type": "VEMaps.PinData","Title": "GYMNASE MUNICIPAL JAPY","Name": "","Description": "","Latitude":48.8560471,"Longitude": 2.38241},
{"__type": "VEMaps.PinData","Title": "GYMNASE PHILIPPE-AUGUSTE","Name": "","Description": "","Latitude":48.8538804,"Longitude": 2.3925235},
{"__type": "VEMaps.PinData","Title": "CENTRE D'ANIMATION MERCOEUR","Name": "","Description": "","Latitude":48.8569015,"Longitude": 2.3832287},
{"__type": "VEMaps.PinData","Title": "ANTENNE JEUNES ORILLON","Name": "","Description": "","Latitude":48.8705898,"Longitude": 2.3775618},
{"__type": "VEMaps.PinData","Title": "BIBLIOTHEQUE MUNICIPALE DIDEROT","Name": "","Description": "","Latitude":48.8459507,"Longitude": 2.3775478},
{"__type": "VEMaps.PinData","Title": "BIBLIOTHEQUE-DISCOTHEQUE MUNICIPALE SAINT-ELOI","Name": "","Description": "","Latitude":48.8456169,"Longitude": 2.3871803},
{"__type": "VEMaps.PinData","Title": "MEDIATHEQUE HELENE BERR","Name": "","Description": "","Latitude":48.8425799,"Longitude": 2.3974463},
{"__type": "VEMaps.PinData","Title": "CONSERVATOIRE MUNICIPAL PAUL DUKAS","Name": "","Description": "","Latitude":48.8436059,"Longitude": 2.3966024},
{"__type": "VEMaps.PinData","Title": "ECOLE MATERNELLE 12 RUE ARTAGNAN","Name": "","Description": "","Latitude":48.8453639,"Longitude": 2.3871811},
{"__type": "VEMaps.PinData","Title": "ECOLE MATERNELLE 13 AV ARMAND ROUSSEAU","Name": "","Description": "","Latitude":48.8360121,"Longitude": 2.4089504},
{"__type": "VEMaps.PinData","Title": "ECOLE MATERNELLE 15 RUE ELISA LEMONNIER","Name": "","Description": "","Latitude":48.8407853,"Longitude": 2.3895123},
{"__type": "VEMaps.PinData","Title": "ECOLE MATERNELLE 16 RUE CHARLES BAUDELAIRE","Name": "","Description": "","Latitude":48.8494285,"Longitude": 2.376898},
{"__type": "VEMaps.PinData","Title": "ECOLE MATERNELLE 16 RUE MARSOULAN","Name": "","Description": "","Latitude":48.8462873,"Longitude": 2.4034062},
{"__type": "VEMaps.PinData","Title": "ECOLE MATERNELLE 167 RUE BERCY","Name": "","Description": "","Latitude":48.8425458,"Longitude": 2.3752521},
{"__type": "VEMaps.PinData","Title": "ECOLE MATERNELLE 2 PL LACHAMBEAUDIE","Name": "","Description": "","Latitude":48.8356835,"Longitude": 2.3860976},
{"__type": "VEMaps.PinData","Title": "ECOLE MATERNELLE 253 BIS AV DAUMESNIL","Name": "","Description": "","Latitude":48.8374343,"Longitude": 2.4020982},
{"__type": "VEMaps.PinData","Title": "ECOLE MATERNELLE 28 RUE BRECHE AUX LOUPS","Name": "","Description": "","Latitude":48.8374155,"Longitude": 2.3940482},
{"__type": "VEMaps.PinData","Title": "ECOLE MATERNELLE 33 RUE POMMARD","Name": "","Description": "","Latitude":48.8365031,"Longitude": 2.3837972},
{"__type": "VEMaps.PinData","Title": "ECOLE MATERNELLE 40 RUE JACQUES HILLAIRET","Name": "","Description": "","Latitude":48.8433052,"Longitude": 2.3890139},
{"__type": "VEMaps.PinData","Title": "ECOLE MATERNELLE 40 RUE MEUNIERS","Name": "","Description": "","Latitude":48.8348047,"Longitude": 2.396586},
{"__type": "VEMaps.PinData","Title": "ECOLE MATERNELLE 41 RUE TRAVERSIERE","Name": "","Description": "","Latitude":48.8475296,"Longitude": 2.3732337},
{"__type": "VEMaps.PinData","Title": "ECOLE MATERNELLE 42 AV DOCTEUR ARNOLD NETTER","Name": "","Description": "","Latitude":48.8437744,"Longitude": 2.4056468},
{"__type": "VEMaps.PinData","Title": "ECOLE MATERNELLE 45 RUE PICPUS","Name": "","Description": "","Latitude":48.8436059,"Longitude": 2.3966024},
{"__type": "VEMaps.PinData","Title": "ECOLE MATERNELLE 56 RUE PICPUS","Name": "","Description": "","Latitude":48.8435512,"Longitude": 2.3966451},
{"__type": "VEMaps.PinData","Title": "ECOLE MATERNELLE 59 RUE REUILLY","Name": "","Description": "","Latitude":48.8457658,"Longitude": 2.3885968},
{"__type": "VEMaps.PinData","Title": "ECOLE MATERNELLE 7 RUE JEAN BOUTON","Name": "","Description": "","Latitude":48.8455267,"Longitude": 2.3769324},
{"__type": "VEMaps.PinData","Title": "ECOLE MATERNELLE 70 AV DAUMESNIL","Name": "","Description": "","Latitude":48.8446802,"Longitude": 2.3804037},
{"__type": "VEMaps.PinData","Title": "ECOLE MATERNELLE 8 AV LAMORICIERE","Name": "","Description": "","Latitude":48.8447138,"Longitude": 2.4120987},
{"__type": "VEMaps.PinData","Title": "ECOLE ÉLÉMENTAIRE 315 RUE CHARENTON","Name": "","Description": "","Latitude":48.8335845,"Longitude": 2.3951674},
{"__type": "VEMaps.PinData","Title": "ECOLE ÉLÉMENTAIRE 4 RUE BIGNON","Name": "","Description": "","Latitude":48.8404834,"Longitude": 2.3886911},
{"__type": "VEMaps.PinData","Title": "ECOLE ÉLÉMENTAIRE 4 RUE POMMARD","Name": "","Description": "","Latitude":48.8356418,"Longitude": 2.384936},
{"__type": "VEMaps.PinData","Title": "ECOLE ÉLÉMENTAIRE 51 RUE CHARENTON","Name": "","Description": "","Latitude":48.8510506,"Longitude": 2.3727372},
{"__type": "VEMaps.PinData","Title": "ECOLE ÉLÉMENTAIRE 52 RUE WATTIGNIES","Name": "","Description": "","Latitude":48.8355135,"Longitude": 2.3972522},
{"__type": "VEMaps.PinData","Title": "ECOLE ÉLÉMENTAIRE 8 RUE CHARLES BAUDELAIRE","Name": "","Description": "","Latitude":48.8484961,"Longitude": 2.3760687},
{"__type": "VEMaps.PinData","Title": "ECOLE ÉLÉMENTAIRE A 10 AV LAMORICIERE","Name": "","Description": "","Latitude":48.8448293,"Longitude": 2.412405},
{"__type": "VEMaps.PinData","Title": "ECOLE ÉLÉMENTAIRE A 253 TER AV DAUMESNIL","Name": "","Description": "","Latitude":48.8374343,"Longitude": 2.4020982},
{"__type": "VEMaps.PinData","Title": "ECOLE ÉLÉMENTAIRE A 5 RUE JEAN BOUTON","Name": "","Description": "","Latitude":48.8456684,"Longitude": 2.3768131},
{"__type": "VEMaps.PinData","Title": "ECOLE ÉLÉMENTAIRE A 56 RUE PICPUS","Name": "","Description": "","Latitude":48.8435512,"Longitude": 2.3966451},
{"__type": "VEMaps.PinData","Title": "ECOLE ÉLÉMENTAIRE A 57 RUE REUILLY","Name": "","Description": "","Latitude":48.8458217,"Longitude": 2.3885239},
{"__type": "VEMaps.PinData","Title": "ECOLE ÉLÉMENTAIRE B 40 BD DIDEROT","Name": "","Description": "","Latitude":48.8461592,"Longitude": 2.3773753},
{"__type": "VEMaps.PinData","Title": "ECOLE ÉLÉMENTAIRE B 56 RUE PICPUS","Name": "","Description": "","Latitude":48.8435512,"Longitude": 2.3966451},
{"__type": "VEMaps.PinData","Title": "ECOLE ÉLÉMENTAIRE B 57 RUE REUILLY","Name": "","Description": "","Latitude":48.8458217,"Longitude": 2.3885239},
{"__type": "VEMaps.PinData","Title": "ECOLE ÉLÉMENTAIRE B 8 AV LAMORICIERE","Name": "","Description": "","Latitude":48.8447138,"Longitude": 2.4120987},
{"__type": "VEMaps.PinData","Title": "ECOLE ÉLÉMENTAIRE B 83 AV GENERAL MICHEL BIZOT","Name": "","Description": "","Latitude":48.8373918,"Longitude": 2.4035698},
{"__type": "VEMaps.PinData","Title": "ECOLE ÉLÉMENTAIRE 165 RUE BERCY","Name": "","Description": "","Latitude":48.8424635,"Longitude": 2.3753291},
{"__type": "VEMaps.PinData","Title": "ECOLE ÉLÉMENTAIRE 18 RUE BRECHE AUX LOUPS","Name": "","Description": "","Latitude":48.8374256,"Longitude": 2.3940579},
{"__type": "VEMaps.PinData","Title": "ECOLE ÉLÉMENTAIRE 19 RUE MARSOULAN","Name": "","Description": "","Latitude":48.8464223,"Longitude": 2.4031434},
{"__type": "VEMaps.PinData","Title": "ECOLE ÉLÉMENTAIRE 22 RUE GABRIEL LAME","Name": "","Description": "","Latitude":48.8341619,"Longitude": 2.3869135},
{"__type": "VEMaps.PinData","Title": "ECOLE ÉLÉMENTAIRE 27 RUE REUILLY","Name": "","Description": "","Latitude":48.8479979,"Longitude": 2.3864564},
{"__type": "VEMaps.PinData","Title": "ECOLE POLYVALENTE 16 RUE MONTEMPOIVRE","Name": "","Description": "","Latitude":48.8401565,"Longitude": 2.4068883},
{"__type": "VEMaps.PinData","Title": "ECOLE POLYVALENTE GERTY ARCHIMEDE","Name": "","Description": "","Latitude":48.8356308,"Longitude": 2.3869992},
{"__type": "VEMaps.PinData","Title": "MAIRIE DU 12E ARRONDISSEMENT","Name": "","Description": "","Latitude":48.8411363,"Longitude": 2.3888422},
{"__type": "VEMaps.PinData","Title": "MAISON DES ASSOCIATIONS AVENUE DAUMESNIL","Name": "","Description": "","Latitude":48.8406323,"Longitude": 2.392377},
{"__type": "VEMaps.PinData","Title": "ESPACE REUILLY","Name": "","Description": "","Latitude":48.8425506,"Longitude": 2.3895735},
{"__type": "VEMaps.PinData","Title": "GYMNASE CARNOT","Name": "","Description": "","Latitude":48.8429684,"Longitude": 2.4129258},
{"__type": "VEMaps.PinData","Title": "GYMNASE DAUMESNIL","Name": "","Description": "","Latitude":48.8445871,"Longitude": 2.3809061},
{"__type": "VEMaps.PinData","Title": "GYMNASE DE LA LANCETTE","Name": "","Description": "","Latitude":48.8365063,"Longitude": 2.3949841},
{"__type": "VEMaps.PinData","Title": "GYMNASE PICPUS","Name": "","Description": "","Latitude":48.8435512,"Longitude": 2.3966451},
{"__type": "VEMaps.PinData","Title": "CENTRE D'ANIMATION BERCY","Name": "","Description": "","Latitude":48.8343411,"Longitude": 2.387233},
{"__type": "VEMaps.PinData","Title": "CENTRE D'ANIMATION MAURICE RAVEL","Name": "","Description": "","Latitude":48.8410556,"Longitude": 2.4114746},
{"__type": "VEMaps.PinData","Title": "CENTRE D'ANIMATION REUILLY","Name": "","Description": "","Latitude":48.8425562,"Longitude": 2.3895826},
{"__type": "VEMaps.PinData","Title": "CENTRE D'ANIMATION SAINT-ELOI (ANTENNE ERARD)","Name": "","Description": "","Latitude":48.8454154,"Longitude": 2.3844756},
{"__type": "VEMaps.PinData","Title": "CENTRE D'ANIMATION STINVILLE MONTGALLET","Name": "","Description": "","Latitude":48.8440705,"Longitude": 2.3884488},
{"__type": "VEMaps.PinData","Title": "CENTRE D'ANIMATION VILLIOT RAPEE","Name": "","Description": "","Latitude":48.8427054,"Longitude": 2.3717894},
{"__type": "VEMaps.PinData","Title": "MAISON DES ENSEMBLES","Name": "","Description": "","Latitude":48.8481113,"Longitude": 2.3771102},
{"__type": "VEMaps.PinData","Title": "ANTENNE JEUNES CLAUDE DECAEN","Name": "","Description": "","Latitude":48.8385778,"Longitude": 2.3962439},
{"__type": "VEMaps.PinData","Title": "BIBLIOTHEQUE-DISCOTHEQUE MUNICIPALE GLACIERE","Name": "","Description": "","Latitude":48.8274187,"Longitude": 2.3419732},
{"__type": "VEMaps.PinData","Title": "BIBLIOTHEQUE-DISCOTHEQUE MUNICIPALE ITALIE","Name": "","Description": "","Latitude":48.8308813,"Longitude": 2.3571105},
{"__type": "VEMaps.PinData","Title": "BIBLIOTHEQUE-DISCOTHEQUE-VIDEOTHEQUE MUNICIPALE JEAN-PIERRE MELVILLE","Name": "","Description": "","Latitude":48.8266611,"Longitude": 2.366538},
{"__type": "VEMaps.PinData","Title": "CONSERVATOIRE MUNICIPAL MAURICE RAVEL","Name": "","Description": "","Latitude":48.8312003,"Longitude": 2.3582865},
{"__type": "VEMaps.PinData","Title": "ANNEXE MATERNELLE DU 40 RUE VANDREZANNE","Name": "","Description": "","Latitude":48.8290894,"Longitude": 2.3535274},
{"__type": "VEMaps.PinData","Title": "ECOLE MATERNELLE (RELAIS) 34 RUE CHARLES MOUREU","Name": "","Description": "","Latitude":48.8286871,"Longitude": 2.3617626},
{"__type": "VEMaps.PinData","Title": "ECOLE MATERNELLE 100 RUE DE LA GLACIERE","Name": "","Description": "","Latitude":48.82986,"Longitude": 2.3429823},
{"__type": "VEMaps.PinData","Title": "ECOLE MATERNELLE 103 RUE CHATEAU DES RENTIERS","Name": "","Description": "","Latitude":48.8280433,"Longitude": 2.3671444},
{"__type": "VEMaps.PinData","Title": "ECOLE MATERNELLE 11 RUE AUGUSTE PERRET","Name": "","Description": "","Latitude":48.8250286,"Longitude": 2.3602955},
{"__type": "VEMaps.PinData","Title": "ECOLE MATERNELLE 11 RUE CROULEBARBE","Name": "","Description": "","Latitude":48.834255,"Longitude": 2.352378},
{"__type": "VEMaps.PinData","Title": "ECOLE MATERNELLE 12 RUE ESPERANCE","Name": "","Description": "","Latitude":48.8267473,"Longitude": 2.3478909},
{"__type": "VEMaps.PinData","Title": "ECOLE MATERNELLE 13 RUE LAHIRE","Name": "","Description": "","Latitude":48.8296691,"Longitude": 2.3663221},
{"__type": "VEMaps.PinData","Title": "ECOLE MATERNELLE 140 RUE LEON-MAURICE NORDMANN","Name": "","Description": "","Latitude":48.8336809,"Longitude": 2.3429566},
{"__type": "VEMaps.PinData","Title": "ECOLE MATERNELLE 15 RUE DOMREMY","Name": "","Description": "","Latitude":48.8303326,"Longitude": 2.3731416},
{"__type": "VEMaps.PinData","Title": "ECOLE MATERNELLE 157 RUE TOLBIAC","Name": "","Description": "","Latitude":48.8260506,"Longitude": 2.3561565},
{"__type": "VEMaps.PinData","Title": "ECOLE MATERNELLE 16 RUE WURTZ","Name": "","Description": "","Latitude":48.8268658,"Longitude": 2.3446572},
{"__type": "VEMaps.PinData","Title": "ECOLE MATERNELLE 17 RUE POINTE D'IVRY","Name": "","Description": "","Latitude":48.822446,"Longitude": 2.3641327},
{"__type": "VEMaps.PinData","Title": "ECOLE MATERNELLE 2 RUE PAUL GERVAIS","Name": "","Description": "","Latitude":48.831594,"Longitude": 2.3476429},
{"__type": "VEMaps.PinData","Title": "ECOLE MATERNELLE 20 RUE PATAY","Name": "","Description": "","Latitude":48.8250905,"Longitude": 2.3755726},
{"__type": "VEMaps.PinData","Title": "ECOLE MATERNELLE 28 AV STEPHEN PICHON","Name": "","Description": "","Latitude":48.8323543,"Longitude": 2.3585341},
{"__type": "VEMaps.PinData","Title": "ECOLE MATERNELLE 29 RUE LONGUES RAIES","Name": "","Description": "","Latitude":48.8212041,"Longitude": 2.3503095},
{"__type": "VEMaps.PinData","Title": "ECOLE MATERNELLE 31 RUE CHATEAU DES RENTIERS","Name": "","Description": "","Latitude":48.8246254,"Longitude": 2.3699364},
{"__type": "VEMaps.PinData","Title": "ECOLE MATERNELLE 32 PL JEANNE D'ARC","Name": "","Description": "","Latitude":48.8303915,"Longitude": 2.367835},
{"__type": "VEMaps.PinData","Title": "ECOLE MATERNELLE 4 BIS AV DE CHOISY","Name": "","Description": "","Latitude":48.820542,"Longitude": 2.364604},
{"__type": "VEMaps.PinData","Title": "ECOLE MATERNELLE 40 RUE VANDREZANNE","Name": "","Description": "","Latitude":48.8279235,"Longitude": 2.3529838},
{"__type": "VEMaps.PinData","Title": "ECOLE MATERNELLE 46 RUE JENNER","Name": "","Description": "","Latitude":48.8359667,"Longitude": 2.3609991},
{"__type": "VEMaps.PinData","Title": "ECOLE MATERNELLE 5 RUE SIMONE WEIL","Name": "","Description": "","Latitude":48.8235531,"Longitude": 2.3642466},
{"__type": "VEMaps.PinData","Title": "ECOLE MATERNELLE 5 RUE YEO THOMAS","Name": "","Description": "","Latitude":48.8316253,"Longitude": 2.3629744},
{"__type": "VEMaps.PinData","Title": "ECOLE MATERNELLE 53 AV PORTE D'IVRY","Name": "","Description": "","Latitude":48.8213865,"Longitude": 2.3695648},
{"__type": "VEMaps.PinData","Title": "ECOLE MATERNELLE 61 RUE JAVELOT","Name": "","Description": "","Latitude":48.8256449,"Longitude": 2.3648646},
{"__type": "VEMaps.PinData","Title": "ECOLE MATERNELLE 70 RUE DUNOIS","Name": "","Description": "","Latitude":48.833046,"Longitude": 2.3663467},
{"__type": "VEMaps.PinData","Title": "ECOLE MATERNELLE 71 RUE DUNOIS","Name": "","Description": "","Latitude":48.833887,"Longitude": 2.364246},
{"__type": "VEMaps.PinData","Title": "ECOLE MATERNELLE 8 RUE RICAUT","Name": "","Description": "","Latitude":48.8298148,"Longitude": 2.3615545},
{"__type": "VEMaps.PinData","Title": "ECOLE MATERNELLE 87 RUE BRILLAT-SAVARIN","Name": "","Description": "","Latitude":48.8244137,"Longitude": 2.3427117},
{"__type": "VEMaps.PinData","Title": "ECOLE MATERNELLE 9 RUE FRANC-NOHAIN","Name": "","Description": "","Latitude":48.8213707,"Longitude": 2.3753434},
{"__type": "VEMaps.PinData","Title": "ECOLE MATERNELLE 90 BD VINCENT AURIOL","Name": "","Description": "","Latitude":48.8335413,"Longitude": 2.363394},
{"__type": "VEMaps.PinData","Title": "ECOLE ÉLÉMENTAIRE 3 RUE EMILE LEVASSOR","Name": "","Description": "","Latitude":48.8208506,"Longitude": 2.3690256},
{"__type": "VEMaps.PinData","Title": "ECOLE ÉLÉMENTAIRE 30 BD ARAGO","Name": "","Description": "","Latitude":48.8355314,"Longitude": 2.3472212},
{"__type": "VEMaps.PinData","Title": "ECOLE ÉLÉMENTAIRE 37 RUE CHATEAU DES RENTIERS","Name": "","Description": "","Latitude":48.8246015,"Longitude": 2.3699838},
{"__type": "VEMaps.PinData","Title": "ECOLE ÉLÉMENTAIRE 38 RUE VANDREZANNE","Name": "","Description": "","Latitude":48.8277024,"Longitude": 2.3532327},
{"__type": "VEMaps.PinData","Title": "ECOLE ÉLÉMENTAIRE 40 RUE JENNER","Name": "","Description": "","Latitude":48.8355367,"Longitude": 2.3618635},
{"__type": "VEMaps.PinData","Title": "ECOLE ÉLÉMENTAIRE 5 RUE DAMESME","Name": "","Description": "","Latitude":48.8249715,"Longitude": 2.3554584},
{"__type": "VEMaps.PinData","Title": "ECOLE ÉLÉMENTAIRE 51 AV PORTE D'IVRY","Name": "","Description": "","Latitude":48.8213578,"Longitude": 2.3695971},
{"__type": "VEMaps.PinData","Title": "ECOLE ÉLÉMENTAIRE 64 RUE DUNOIS","Name": "","Description": "","Latitude":48.8329209,"Longitude": 2.3662297},
{"__type": "VEMaps.PinData","Title": "ECOLE ÉLÉMENTAIRE A 103 AV CHOISY","Name": "","Description": "","Latitude":48.8249842,"Longitude": 2.3606907},
{"__type": "VEMaps.PinData","Title": "ECOLE ÉLÉMENTAIRE A 33 PL JEANNE D'ARC","Name": "","Description": "","Latitude":48.8297845,"Longitude": 2.3674528},
{"__type": "VEMaps.PinData","Title": "ECOLE ÉLÉMENTAIRE A 47 AV IVRY","Name": "","Description": "","Latitude":48.8232389,"Longitude": 2.3658388},
{"__type": "VEMaps.PinData","Title": "ECOLE ÉLÉMENTAIRE A 5 RUE PROVIDENCE","Name": "","Description": "","Latitude":48.8250981,"Longitude": 2.3496388},
{"__type": "VEMaps.PinData","Title": "ECOLE ÉLÉMENTAIRE A 53 RUE BAUDRICOURT","Name": "","Description": "","Latitude":48.8260135,"Longitude": 2.3632785},
{"__type": "VEMaps.PinData","Title": "ECOLE ÉLÉMENTAIRE A 8 RUE KUSS","Name": "","Description": "","Latitude":48.8221808,"Longitude": 2.351696},
{"__type": "VEMaps.PinData","Title": "ECOLE ÉLÉMENTAIRE A 9 RUE FRANC-NOHAIN","Name": "","Description": "","Latitude":48.8213707,"Longitude": 2.3753434},
{"__type": "VEMaps.PinData","Title": "ECOLE ÉLÉMENTAIRE B 30 PL JEANNE D'ARC","Name": "","Description": "","Latitude":48.8303486,"Longitude": 2.3684373},
{"__type": "VEMaps.PinData","Title": "ECOLE ÉLÉMENTAIRE B 46 RUE JENNER","Name": "","Description": "","Latitude":48.8359667,"Longitude": 2.3609991},
{"__type": "VEMaps.PinData","Title": "ECOLE ÉLÉMENTAIRE B 47 AV IVRY","Name": "","Description": "","Latitude":48.8232389,"Longitude": 2.3658388},
{"__type": "VEMaps.PinData","Title": "ECOLE ÉLÉMENTAIRE B 55 RUE BAUDRICOURT","Name": "","Description": "","Latitude":48.8257264,"Longitude": 2.3630826},
{"__type": "VEMaps.PinData","Title": "ECOLE ÉLÉMENTAIRE B 7 RUE PROVIDENCE","Name": "","Description": "","Latitude":48.825378,"Longitude": 2.3487544},
{"__type": "VEMaps.PinData","Title": "ECOLE ÉLÉMENTAIRE B 9 RUE AUGUSTE PERRET","Name": "","Description": "","Latitude":48.8248069,"Longitude": 2.3596496},
{"__type": "VEMaps.PinData","Title": "ECOLE ÉLÉMENTAIRE 100 RUE DE LA GLACIERE","Name": "","Description": "","Latitude":48.82986,"Longitude": 2.3429823},
{"__type": "VEMaps.PinData","Title": "ECOLE ÉLÉMENTAIRE 11 RUE PIERRE GOURDAULT","Name": "","Description": "","Latitude":48.8312889,"Longitude": 2.3707539},
{"__type": "VEMaps.PinData","Title": "ECOLE ÉLÉMENTAIRE 13 RUE FAGON","Name": "","Description": "","Latitude":48.8325114,"Longitude": 2.3570426},
{"__type": "VEMaps.PinData","Title": "ECOLE ÉLÉMENTAIRE 13 RUE VULPIAN","Name": "","Description": "","Latitude":48.8314722,"Longitude": 2.3465185},
{"__type": "VEMaps.PinData","Title": "ECOLE ÉLÉMENTAIRE 140 RUE LEON-MAURICE NORDMANN","Name": "","Description": "","Latitude":48.8336809,"Longitude": 2.3429566},
{"__type": "VEMaps.PinData","Title": "ECOLE ÉLÉMENTAIRE 16 RUE WURTZ","Name": "","Description": "","Latitude":48.8268658,"Longitude": 2.3446572},
{"__type": "VEMaps.PinData","Title": "ECOLE ÉLÉMENTAIRE 173 RUE CHATEAU DES RENTIERS","Name": "","Description": "","Latitude":48.8302868,"Longitude": 2.3619845},
{"__type": "VEMaps.PinData","Title": "ECOLE POLYVALENTE 2 PLACE DES 44 ENFANTS D’IZIEU","Name": "","Description": "","Latitude":48.830759,"Longitude": 2.359204},
{"__type": "VEMaps.PinData","Title": "ECOLE POLYVALENTE 21 RUE PRIMO LEVI","Name": "","Description": "","Latitude":48.830525,"Longitude": 2.378579},
{"__type": "VEMaps.PinData","Title": "ECOLE POLYVALENTE 40 RUE DU CHÂTEAU DES RENTIERS","Name": "","Description": "","Latitude":48.8248588,"Longitude": 2.3699483},
{"__type": "VEMaps.PinData","Title": "ECOLE POLYVALENTE 8 RUE GEORGE BALANCHINE","Name": "","Description": "","Latitude":48.8364364,"Longitude": 2.3737579},
{"__type": "VEMaps.PinData","Title": "ECOLE POLYVALENTE 8 RUE KUSS","Name": "","Description": "","Latitude":48.8221808,"Longitude": 2.351696},
{"__type": "VEMaps.PinData","Title": "ECOLE POLYVALENTE MASSENA SUD, LOT M9C ZAC PRG","Name": "","Description": "","Latitude":48.856614,"Longitude": 2.3522219},
{"__type": "VEMaps.PinData","Title": "MAIRIE DU 13E ARRONDISSEMENT","Name": "","Description": "","Latitude":48.8320224,"Longitude": 2.3556076},
{"__type": "VEMaps.PinData","Title": "ESPACE DE QUARTIER AVENUE LEON BOLLEE","Name": "","Description": "","Latitude":48.8183756,"Longitude": 2.3635895},
{"__type": "VEMaps.PinData","Title": "MAISON DES ASSOCIATIONS RUE CAILLAUX","Name": "","Description": "","Latitude":48.8226783,"Longitude": 2.3612652},
{"__type": "VEMaps.PinData","Title": "MULTI-ACCUEIL 37 RUE VERGNIAUD","Name": "","Description": "","Latitude":48.8272686,"Longitude": 2.3456784},
{"__type": "VEMaps.PinData","Title": "MULTI-ACCUEIL 18, RUE DU DOCTEUR MAGNAN","Name": "","Description": "","Latitude":48.8274806,"Longitude": 2.3622077},
{"__type": "VEMaps.PinData","Title": "MULTI-ACCUEIL 5, RUE DES FRIGOS - ZAC PRG LOT M1-F1","Name": "","Description": "","Latitude":48.8305166,"Longitude": 2.3802394},
{"__type": "VEMaps.PinData","Title": "STADE BOUTROUX","Name": "","Description": "","Latitude":48.8225682,"Longitude": 2.3774018},
{"__type": "VEMaps.PinData","Title": "STADE CHARLES MOUREU","Name": "","Description": "","Latitude":48.8277075,"Longitude": 2.3643506},
{"__type": "VEMaps.PinData","Title": "STADE TOUR A PARACHUTES","Name": "","Description": "","Latitude":48.8185365,"Longitude": 2.3658899},
{"__type": "VEMaps.PinData","Title": "GYMNASE AUGUSTE BLANQUI","Name": "","Description": "","Latitude":48.8301093,"Longitude": 2.3508933},
{"__type": "VEMaps.PinData","Title": "GYMNASE CAILLAUX","Name": "","Description": "","Latitude":48.8228094,"Longitude": 2.3618901},
{"__type": "VEMaps.PinData","Title": "GYMNASE CHATEAU DES RENTIERS","Name": "","Description": "","Latitude":48.8304552,"Longitude": 2.3619955},
{"__type": "VEMaps.PinData","Title": "GYMNASE DE LA POINTE D'IVRY","Name": "","Description": "","Latitude":48.8232389,"Longitude": 2.3658388},
{"__type": "VEMaps.PinData","Title": "GYMNASE DU 121 RUE DE LA GLACIERE","Name": "","Description": "","Latitude":48.826925,"Longitude": 2.342032},
{"__type": "VEMaps.PinData","Title": "GYMNASE DUNOIS","Name": "","Description": "","Latitude":48.833046,"Longitude": 2.3663467},
{"__type": "VEMaps.PinData","Title": "GYMNASE JEAN PREVOST","Name": "","Description": "","Latitude":48.8300534,"Longitude": 2.3438106},
{"__type": "VEMaps.PinData","Title": "GYMNASE KELLERMANN","Name": "","Description": "","Latitude":48.8194968,"Longitude": 2.3446342},
{"__type": "VEMaps.PinData","Title": "GYMNASE MARCEL CERDAN + ESPACE EUGENE OUDINE","Name": "","Description": "","Latitude":48.825869,"Longitude": 2.3759222},
{"__type": "VEMaps.PinData","Title": "GYMNASE STADIUM 13","Name": "","Description": "","Latitude":48.8242171,"Longitude": 2.3641925},
{"__type": "VEMaps.PinData","Title": "CENTRE D'ANIMATION BAUDRICOURT","Name": "","Description": "","Latitude":48.8235098,"Longitude": 2.3639301},
{"__type": "VEMaps.PinData","Title": "CENTRE D'ANIMATION CHARLES RICHET","Name": "","Description": "","Latitude":48.8319242,"Longitude": 2.364011},
{"__type": "VEMaps.PinData","Title": "CENTRE D'ANIMATION DAVIEL","Name": "","Description": "","Latitude":48.8281766,"Longitude": 2.3447246},
{"__type": "VEMaps.PinData","Title": "CENTRE D'ANIMATION DUNOIS","Name": "","Description": "","Latitude":48.8331026,"Longitude": 2.3663349},
{"__type": "VEMaps.PinData","Title": "CENTRE D'ANIMATION POTERNE DES PEUPLIERS","Name": "","Description": "","Latitude":48.8205335,"Longitude": 2.3510481},
{"__type": "VEMaps.PinData","Title": "CENTRE D'ANIMATION OUDINE","Name": "","Description": "","Latitude":48.825869,"Longitude": 2.3759222},
{"__type": "VEMaps.PinData","Title": "CENTRE D'ANIMATION MASSENA","Name": "","Description": "","Latitude":48.8307047,"Longitude": 2.380085},
{"__type": "VEMaps.PinData","Title": "ANTENNE JEUNES SUD 13","Name": "","Description": "","Latitude":48.8206942,"Longitude": 2.3735996},
{"__type": "VEMaps.PinData","Title": "ANTENNE JEUNES FONTAINE A MULARD","Name": "","Description": "","Latitude":48.8233196,"Longitude": 2.349429},
{"__type": "VEMaps.PinData","Title": "ANTENNE JEUNES OLYMPIADES","Name": "","Description": "","Latitude":48.824684,"Longitude": 2.366078},
{"__type": "VEMaps.PinData","Title": "BIBLIOTHEQUE MUNICIPALE GEORGES BRASSENS","Name": "","Description": "","Latitude":48.8335647,"Longitude": 2.3257902},
{"__type": "VEMaps.PinData","Title": "BIBLIOTHEQUE-DISCOTHEQUE MUNICIPALE PLAISANCE","Name": "","Description": "","Latitude":48.8312301,"Longitude": 2.3117726},
{"__type": "VEMaps.PinData","Title": "BIBLIOTHEQUE-DISCOTHEQUE MUNICIPALE VANDAMME","Name": "","Description": "","Latitude":48.8381844,"Longitude": 2.3216347},
{"__type": "VEMaps.PinData","Title": "CONSERVATOIRE MUNICIPAL DARIUS MILHAUD","Name": "","Description": "","Latitude":48.8324434,"Longitude": 2.3258768},
{"__type": "VEMaps.PinData","Title": "ECOLE MATERNELLE 10 RUE SEVERO","Name": "","Description": "","Latitude":48.8324184,"Longitude": 2.3237104},
{"__type": "VEMaps.PinData","Title": "ECOLE MATERNELLE 11 RUE JEAN DOLENT","Name": "","Description": "","Latitude":48.8332438,"Longitude": 2.3404115},
{"__type": "VEMaps.PinData","Title": "ECOLE MATERNELLE 13 RUE OUEST","Name": "","Description": "","Latitude":48.8372253,"Longitude": 2.3218234},
{"__type": "VEMaps.PinData","Title": "ECOLE MATERNELLE 15 RUE ANTOINE CHANTIN","Name": "","Description": "","Latitude":48.827316,"Longitude": 2.3219238},
{"__type": "VEMaps.PinData","Title": "ECOLE MATERNELLE 190 RUE ALESIA","Name": "","Description": "","Latitude":48.8325173,"Longitude": 2.3121212},
{"__type": "VEMaps.PinData","Title": "ECOLE MATERNELLE 2 RUE MAURICE ROUVIER","Name": "","Description": "","Latitude":48.8305714,"Longitude": 2.3106297},
{"__type": "VEMaps.PinData","Title": "ECOLE MATERNELLE 22 RUE ANTOINE CHANTIN","Name": "","Description": "","Latitude":48.8273354,"Longitude": 2.3223095},
{"__type": "VEMaps.PinData","Title": "ECOLE MATERNELLE 23 RUE BOULARD","Name": "","Description": "","Latitude":48.8337448,"Longitude": 2.3288462},
{"__type": "VEMaps.PinData","Title": "ECOLE MATERNELLE 23 RUE JACQUIER","Name": "","Description": "","Latitude":48.8300322,"Longitude": 2.3169664},
{"__type": "VEMaps.PinData","Title": "ECOLE MATERNELLE 24 RUE DELAMBRE","Name": "","Description": "","Latitude":48.8415709,"Longitude": 2.3269971},
{"__type": "VEMaps.PinData","Title": "ECOLE MATERNELLE 3 BIS RUE ALESIA","Name": "","Description": "","Latitude":48.8266585,"Longitude": 2.3397051},
{"__type": "VEMaps.PinData","Title": "ECOLE MATERNELLE 34 RUE SARRETTE","Name": "","Description": "","Latitude":48.8260241,"Longitude": 2.3286503},
{"__type": "VEMaps.PinData","Title": "ECOLE MATERNELLE 48 RUE HIPPOLYTE MAINDRON","Name": "","Description": "","Latitude":48.8305263,"Longitude": 2.3206579},
{"__type": "VEMaps.PinData","Title": "ECOLE MATERNELLE 55 RUE MAURICE RIPOCHE","Name": "","Description": "","Latitude":48.8333077,"Longitude": 2.3230066},
{"__type": "VEMaps.PinData","Title": "ECOLE MATERNELLE 55 RUE SARRETTE","Name": "","Description": "","Latitude":48.8251358,"Longitude": 2.3268002},
{"__type": "VEMaps.PinData","Title": "ECOLE MATERNELLE 7 AV MAURICE D'OCAGNE","Name": "","Description": "","Latitude":48.8248806,"Longitude": 2.3120384},
{"__type": "VEMaps.PinData","Title": "ECOLE MATERNELLE 77 RUE TOMBE ISSOIRE","Name": "","Description": "","Latitude":48.8276339,"Longitude": 2.3324518},
{"__type": "VEMaps.PinData","Title": "ECOLE MATERNELLE 7 SQ ALAIN-FOURNIER","Name": "","Description": "","Latitude":48.8274617,"Longitude": 2.3068754},
{"__type": "VEMaps.PinData","Title": "ECOLE ÉLÉMENTAIRE 3 RUE ALESIA","Name": "","Description": "","Latitude":48.8266585,"Longitude": 2.3397051},
{"__type": "VEMaps.PinData","Title": "ECOLE ÉLÉMENTAIRE 46 RUE BOULARD","Name": "","Description": "","Latitude":48.832886,"Longitude": 2.3281076},
{"__type": "VEMaps.PinData","Title": "ECOLE ÉLÉMENTAIRE 48 RUE HIPPOLYTE MAINDRON","Name": "","Description": "","Latitude":48.8305263,"Longitude": 2.3206579},
{"__type": "VEMaps.PinData","Title": "ECOLE ÉLÉMENTAIRE 5 RUE PRISSE D'AVENNES","Name": "","Description": "","Latitude":48.8251294,"Longitude": 2.3282878},
{"__type": "VEMaps.PinData","Title": "ECOLE ÉLÉMENTAIRE 7 AV MAURICE D'OCAGNE","Name": "","Description": "","Latitude":48.8248806,"Longitude": 2.3120384},
{"__type": "VEMaps.PinData","Title": "ECOLE ÉLÉMENTAIRE 7 RUE ASSELINE","Name": "","Description": "","Latitude":48.8351232,"Longitude": 2.3227137},
{"__type": "VEMaps.PinData","Title": "ECOLE ÉLÉMENTAIRE 8 RUE MAURICE ROUVIER","Name": "","Description": "","Latitude":48.831131,"Longitude": 2.3097269},
{"__type": "VEMaps.PinData","Title": "ECOLE ÉLÉMENTAIRE 87 BD ARAGO","Name": "","Description": "","Latitude":48.834543,"Longitude": 2.3358709},
{"__type": "VEMaps.PinData","Title": "ECOLE ÉLÉMENTAIRE 5 SQ ALAIN-FOURNIER","Name": "","Description": "","Latitude":48.8280984,"Longitude": 2.3071809},
{"__type": "VEMaps.PinData","Title": "ECOLE ÉLÉMENTAIRE 12 RUE ALESIA","Name": "","Description": "","Latitude":48.8277954,"Longitude": 2.3334781},
{"__type": "VEMaps.PinData","Title": "ECOLE ÉLÉMENTAIRE 12 RUE SEVERO","Name": "","Description": "","Latitude":48.8324806,"Longitude": 2.3235229},
{"__type": "VEMaps.PinData","Title": "ECOLE ÉLÉMENTAIRE 18 RUE JEAN ZAY","Name": "","Description": "","Latitude":48.8375299,"Longitude": 2.3208731},
{"__type": "VEMaps.PinData","Title": "ECOLE ÉLÉMENTAIRE 188 RUE ALESIA","Name": "","Description": "","Latitude":48.8324467,"Longitude": 2.3123078},
{"__type": "VEMaps.PinData","Title": "ECOLE ÉLÉMENTAIRE 20 RUE ANTOINE CHANTIN","Name": "","Description": "","Latitude":48.8272947,"Longitude": 2.3224127},
{"__type": "VEMaps.PinData","Title": "ECOLE ÉLÉMENTAIRE 24 RUE DELAMBRE","Name": "","Description": "","Latitude":48.8415709,"Longitude": 2.3269971},
{"__type": "VEMaps.PinData","Title": "ECOLE ÉLÉMENTAIRE 28 RUE PIERRE LAROUSSE","Name": "","Description": "","Latitude":48.829155,"Longitude": 2.3141159},
{"__type": "VEMaps.PinData","Title": "ECOLE POLYVALENTE 13 AV DE LA SIBELLE","Name": "","Description": "","Latitude":48.8260258,"Longitude": 2.3384828},
{"__type": "VEMaps.PinData","Title": "ECOLE POLYVALENTE 69 RUE OUEST","Name": "","Description": "","Latitude":48.8357006,"Longitude": 2.3186671},
{"__type": "VEMaps.PinData","Title": "MAIRIE DU 14E ARRONDISSEMENT","Name": "","Description": "","Latitude":48.8326402,"Longitude": 2.3272742},
{"__type": "VEMaps.PinData","Title": "MAIRIE ANNEXE DU 14E ARRONDISSEMENT","Name": "","Description": "","Latitude":48.8324434,"Longitude": 2.3258768},
{"__type": "VEMaps.PinData","Title": "MAISON DES ASSOCIATIONS RUE DEPARCIEUX","Name": "","Description": "","Latitude":48.8356253,"Longitude": 2.3258871},
{"__type": "VEMaps.PinData","Title": "LOCAUX ASSOCIATIFS 12 RUE DU MOULIN DES LAPINS","Name": "","Description": "","Latitude":48.8341858,"Longitude": 2.3208703},
{"__type": "VEMaps.PinData","Title": "LOCAUX ASSOCIATIFS 35 RUE SAINT-GOTHARD","Name": "","Description": "","Latitude":48.8280034,"Longitude": 2.3355569},
{"__type": "VEMaps.PinData","Title": "LOCAUX ASSOCIATIFS 40 RUE BOULARD","Name": "","Description": "","Latitude":48.8331248,"Longitude": 2.3280889},
{"__type": "VEMaps.PinData","Title": "GYMNASE ALICE MILLIAT","Name": "","Description": "","Latitude":48.8272173,"Longitude": 2.3358366},
{"__type": "VEMaps.PinData","Title": "GYMNASE AUGUSTE RENOIR","Name": "","Description": "","Latitude":48.8281681,"Longitude": 2.3079452},
{"__type": "VEMaps.PinData","Title": "GYMNASE COMMANDANT MOUCHOTTE","Name": "","Description": "","Latitude":48.837762,"Longitude": 2.319462},
{"__type": "VEMaps.PinData","Title": "GYMNASE HUYGHENS","Name": "","Description": "","Latitude":48.8408383,"Longitude": 2.3284963},
{"__type": "VEMaps.PinData","Title": "GYMNASE DU CANGE","Name": "","Description": "","Latitude":48.8340757,"Longitude": 2.3146261},
{"__type": "VEMaps.PinData","Title": "CENTRE D'ANIMATION GAREF OCEANO-GRAPHIQUE","Name": "","Description": "","Latitude":48.8391669,"Longitude": 2.3182074},
{"__type": "VEMaps.PinData","Title": "CENTRE D'ANIMATION MARC SANGNIER","Name": "","Description": "","Latitude":48.8262507,"Longitude": 2.3065104},
{"__type": "VEMaps.PinData","Title": "CENTRE D'ANIMATION VERCINGETORIX","Name": "","Description": "","Latitude":48.8315501,"Longitude": 2.3095133},
{"__type": "VEMaps.PinData","Title": "ANTENNE JEUNES DIDOT","Name": "","Description": "","Latitude":48.8315186,"Longitude": 2.319843},
{"__type": "VEMaps.PinData","Title": "BIBLIOTHEQUE MUNICIPALE GUTENBERG","Name": "","Description": "","Latitude":48.8402475,"Longitude": 2.2787776},
{"__type": "VEMaps.PinData","Title": "BIBLIOTHEQUE-DISCOTHEQUE MUNICIPALE VAUGIRARD","Name": "","Description": "","Latitude":48.8417079,"Longitude": 2.2994759},
{"__type": "VEMaps.PinData","Title": "BIBLIOTHEQUE-DISCOTHEQUE-VIDEOTHEQUE MUNICIPALE BEAUGRENELLE","Name": "","Description": "","Latitude":48.8499924,"Longitude": 2.2864868},
{"__type": "VEMaps.PinData","Title": "BIBLIOTHEQUE-MEDIATHEQUE MARGUERITE YOURCENAR","Name": "","Description": "","Latitude":48.8367847,"Longitude": 2.3032947},
{"__type": "VEMaps.PinData","Title": "CONSERVATOIRE MUNICIPAL FRÉDÉRIC CHOPIN","Name": "","Description": "","Latitude":48.8379053,"Longitude": 2.3089985},
{"__type": "VEMaps.PinData","Title": "ANNEXE MATERNELLE DU 56 AV FELIX FAURE","Name": "","Description": "","Latitude":48.8431667,"Longitude": 2.290652},
{"__type": "VEMaps.PinData","Title": "ECOLE MATERNELLE 10 RUE FRANCOIS COPPEE","Name": "","Description": "","Latitude":48.8400111,"Longitude": 2.2876054},
{"__type": "VEMaps.PinData","Title": "ECOLE MATERNELLE 102 RUE ALLERAY","Name": "","Description": "","Latitude":48.8366938,"Longitude": 2.3033615},
{"__type": "VEMaps.PinData","Title": "ECOLE MATERNELLE 149 RUE VAUGIRARD","Name": "","Description": "","Latitude":48.8439507,"Longitude": 2.3161546},
{"__type": "VEMaps.PinData","Title": "ECOLE MATERNELLE 15 RUE ARISTIDE MAILLOL","Name": "","Description": "","Latitude":48.8377321,"Longitude": 2.3120711},
{"__type": "VEMaps.PinData","Title": "ECOLE MATERNELLE 16 RUE EMERIAU","Name": "","Description": "","Latitude":48.8515009,"Longitude": 2.2881729},
{"__type": "VEMaps.PinData","Title": "ECOLE MATERNELLE 17 RUE VOLONTAIRES","Name": "","Description": "","Latitude":48.8425276,"Longitude": 2.3072162},
{"__type": "VEMaps.PinData","Title": "ECOLE MATERNELLE 18 RUE FEDERATION","Name": "","Description": "","Latitude":48.854616,"Longitude": 2.2911172},
{"__type": "VEMaps.PinData","Title": "ECOLE MATERNELLE 2 RUE THEODORE DECK","Name": "","Description": "","Latitude":48.8376016,"Longitude": 2.2906241},
{"__type": "VEMaps.PinData","Title": "ECOLE MATERNELLE 22 RUE SEXTIUS MICHEL","Name": "","Description": "","Latitude":48.8504089,"Longitude": 2.2885638},
{"__type": "VEMaps.PinData","Title": "ECOLE MATERNELLE 3 PL CARDINAL AMETTE","Name": "","Description": "","Latitude":48.8509706,"Longitude": 2.297077},
{"__type": "VEMaps.PinData","Title": "ECOLE MATERNELLE 3 RUE JONGKIND","Name": "","Description": "","Latitude":48.8390462,"Longitude": 2.280131},
{"__type": "VEMaps.PinData","Title": "ECOLE MATERNELLE 34 RUE OLIVIER DE SERRES","Name": "","Description": "","Latitude":48.8355589,"Longitude": 2.2966774},
{"__type": "VEMaps.PinData","Title": "ECOLE MATERNELLE 35 AV EMILE ZOLA","Name": "","Description": "","Latitude":48.8463515,"Longitude": 2.2819113},
{"__type": "VEMaps.PinData","Title": "ECOLE MATERNELLE 38 RUE VIOLET","Name": "","Description": "","Latitude":48.8474324,"Longitude": 2.2926816},
{"__type": "VEMaps.PinData","Title": "ECOLE MATERNELLE 40 RUE MORILLONS","Name": "","Description": "","Latitude":48.8324511,"Longitude": 2.3016473},
{"__type": "VEMaps.PinData","Title": "ECOLE MATERNELLE 42 RUE ALLERAY","Name": "","Description": "","Latitude":48.8367252,"Longitude": 2.3033857},
{"__type": "VEMaps.PinData","Title": "ECOLE MATERNELLE 5 AV PORTE BRANCION","Name": "","Description": "","Latitude":48.8274273,"Longitude": 2.3011319},
{"__type": "VEMaps.PinData","Title": "ECOLE MATERNELLE 5 RUE LACORDAIRE","Name": "","Description": "","Latitude":48.8440949,"Longitude": 2.284373},
{"__type": "VEMaps.PinData","Title": "ECOLE MATERNELLE 56 AV FELIX FAURE","Name": "","Description": "","Latitude":48.8406256,"Longitude": 2.286661},
{"__type": "VEMaps.PinData","Title": "ECOLE MATERNELLE 6 RUE GERBERT","Name": "","Description": "","Latitude":48.8397625,"Longitude": 2.2978252},
{"__type": "VEMaps.PinData","Title": "ECOLE MATERNELLE 66 RUE PROCESSION","Name": "","Description": "","Latitude":48.836578,"Longitude": 2.3094216},
{"__type": "VEMaps.PinData","Title": "ECOLE MATERNELLE 72 RUE GUTENBERG","Name": "","Description": "","Latitude":48.8412086,"Longitude": 2.2785898},
{"__type": "VEMaps.PinData","Title": "ECOLE MATERNELLE 9 RUE VARET","Name": "","Description": "","Latitude":48.8401021,"Longitude": 2.2811514},
{"__type": "VEMaps.PinData","Title": "ECOLE MATERNELLE 95 RUE BALARD","Name": "","Description": "","Latitude":48.8383011,"Longitude": 2.278379},
{"__type": "VEMaps.PinData","Title": "ECOLE MATERNELLE 99 RUE OLIVIER DE SERRES","Name": "","Description": "","Latitude":48.8317787,"Longitude": 2.2932525},
{"__type": "VEMaps.PinData","Title": "ECOLE MATERNELLE A 33 RUE AMIRAL ROUSSIN","Name": "","Description": "","Latitude":48.844611,"Longitude": 2.2995341},
{"__type": "VEMaps.PinData","Title": "ECOLE MATERNELLE A 33 RUE MIOLLIS","Name": "","Description": "","Latitude":48.8454217,"Longitude": 2.3023637},
{"__type": "VEMaps.PinData","Title": "ECOLE MATERNELLE B 13 RUE CEPRE","Name": "","Description": "","Latitude":48.8470967,"Longitude": 2.3036948},
{"__type": "VEMaps.PinData","Title": "ECOLE MATERNELLE B 83 RUE MADEMOISELLE","Name": "","Description": "","Latitude":48.8432351,"Longitude": 2.3005178},
{"__type": "VEMaps.PinData","Title": "ECOLE ÉLÉMENTAIRE 3 RUE CORBON","Name": "","Description": "","Latitude":48.8364612,"Longitude": 2.3032543},
{"__type": "VEMaps.PinData","Title": "ECOLE ÉLÉMENTAIRE 33 BIS RUE MIOLLIS","Name": "","Description": "","Latitude":48.8454217,"Longitude": 2.3023637},
{"__type": "VEMaps.PinData","Title": "ECOLE ÉLÉMENTAIRE 5 AV PORTE BRANCION","Name": "","Description": "","Latitude":48.8274273,"Longitude": 2.3011319},
{"__type": "VEMaps.PinData","Title": "ECOLE ÉLÉMENTAIRE 50 RUE GUTENBERG","Name": "","Description": "","Latitude":48.8426603,"Longitude": 2.2797642},
{"__type": "VEMaps.PinData","Title": "ECOLE ÉLÉMENTAIRE 56 AV FELIX FAURE","Name": "","Description": "","Latitude":48.8406256,"Longitude": 2.286661},
{"__type": "VEMaps.PinData","Title": "ECOLE ÉLÉMENTAIRE 7 RUE LACORDAIRE","Name": "","Description": "","Latitude":48.8438769,"Longitude": 2.2842302},
{"__type": "VEMaps.PinData","Title": "ECOLE ÉLÉMENTAIRE 99 RUE OLIVIER DE SERRES","Name": "","Description": "","Latitude":48.8317787,"Longitude": 2.2932525},
{"__type": "VEMaps.PinData","Title": "ECOLE ÉLÉMENTAIRE A 10 RUE SAINT-LAMBERT","Name": "","Description": "","Latitude":48.8381776,"Longitude": 2.2909134},
{"__type": "VEMaps.PinData","Title": "ECOLE ÉLÉMENTAIRE A 17 RUE VIGEE-LEBRUN","Name": "","Description": "","Latitude":48.8388259,"Longitude": 2.3110873},
{"__type": "VEMaps.PinData","Title": "ECOLE ÉLÉMENTAIRE A 21 RUE DUPLEIX","Name": "","Description": "","Latitude":48.8515143,"Longitude": 2.2970741},
{"__type": "VEMaps.PinData","Title": "ECOLE ÉLÉMENTAIRE A 35 RUE AMIRAL ROUSSIN","Name": "","Description": "","Latitude":48.8443581,"Longitude": 2.2996062},
{"__type": "VEMaps.PinData","Title": "ECOLE ÉLÉMENTAIRE B 11 RUE VIGEE-LEBRUN","Name": "","Description": "","Latitude":48.8389684,"Longitude": 2.3105877},
{"__type": "VEMaps.PinData","Title": "ECOLE ÉLÉMENTAIRE B 12 RUE SAINT-LAMBERT","Name": "","Description": "","Latitude":48.8380289,"Longitude": 2.2910998},
{"__type": "VEMaps.PinData","Title": "ECOLE ÉLÉMENTAIRE B 3 PL CARDINAL AMETTE","Name": "","Description": "","Latitude":48.8509706,"Longitude": 2.297077},
{"__type": "VEMaps.PinData","Title": "ECOLE ÉLÉMENTAIRE B 81 RUE MADEMOISELLE","Name": "","Description": "","Latitude":48.8432711,"Longitude": 2.3003752},
{"__type": "VEMaps.PinData","Title": "ECOLE ÉLÉMENTAIRE (ANNEXE) 20 RUE DE LA SAÏDA","Name": "","Description": "","Latitude":48.8319619,"Longitude": 2.2955779},
{"__type": "VEMaps.PinData","Title": "ECOLE ÉLÉMENTAIRE 10 RUE EMERIAU","Name": "","Description": "","Latitude":48.8516853,"Longitude": 2.2883799},
{"__type": "VEMaps.PinData","Title": "ECOLE ÉLÉMENTAIRE 12 RUE FONDARY","Name": "","Description": "","Latitude":48.8483643,"Longitude": 2.2923537},
{"__type": "VEMaps.PinData","Title": "ECOLE ÉLÉMENTAIRE 14 RUE FRANCOIS COPPEE","Name": "","Description": "","Latitude":48.8397044,"Longitude": 2.2877901},
{"__type": "VEMaps.PinData","Title": "ECOLE ÉLÉMENTAIRE 146 AV FELIX FAURE","Name": "","Description": "","Latitude":48.8373538,"Longitude": 2.2793175},
{"__type": "VEMaps.PinData","Title": "ECOLE ÉLÉMENTAIRE 15 RUE CHERBOURG","Name": "","Description": "","Latitude":48.8309163,"Longitude": 2.3039823},
{"__type": "VEMaps.PinData","Title": "ECOLE ÉLÉMENTAIRE 19 RUE BLOMET","Name": "","Description": "","Latitude":48.843229,"Longitude": 2.3074156},
{"__type": "VEMaps.PinData","Title": "ECOLE ÉLÉMENTAIRE 197 RUE SAINT-CHARLES","Name": "","Description": "","Latitude":48.8400903,"Longitude": 2.279832},
{"__type": "VEMaps.PinData","Title": "ECOLE ÉLÉMENTAIRE 20 RUE FALGUIERE","Name": "","Description": "","Latitude":48.8431852,"Longitude": 2.3166533},
{"__type": "VEMaps.PinData","Title": "ECOLE ÉLÉMENTAIRE 25 RUE ROUELLE","Name": "","Description": "","Latitude":48.8504376,"Longitude": 2.2873633},
{"__type": "VEMaps.PinData","Title": "ECOLE ÉLÉMENTAIRE 27 RUE OLIVIER DE SERRES","Name": "","Description": "","Latitude":48.8356894,"Longitude": 2.2969077},
{"__type": "VEMaps.PinData","Title": "ECOLE POLYVALENTE 3 BD FRERES VOISIN","Name": "","Description": "","Latitude":48.8279336,"Longitude": 2.2711246},
{"__type": "VEMaps.PinData","Title": "ECOLE POLYVALENTE 78 RUE CONVENTION","Name": "","Description": "","Latitude":48.8421488,"Longitude": 2.2855594},
{"__type": "VEMaps.PinData","Title": "MAIRIE DU 15E ARRONDISSEMENT","Name": "","Description": "","Latitude":48.8413986,"Longitude": 2.3003453},
{"__type": "VEMaps.PinData","Title": "MAIRIE D'ARRONDISSEMENT 15E (ANNEXE) LECOURBE","Name": "","Description": "","Latitude":48.8417079,"Longitude": 2.2994759},
{"__type": "VEMaps.PinData","Title": "MAIRIE D'ARRONDISSEMENT (ANNEXE) 15E VIOLET","Name": "","Description": "","Latitude":48.845619,"Longitude": 2.2914486},
{"__type": "VEMaps.PinData","Title": "MAISON DES ASSOCIATIONS RUE DE LA SAIDA","Name": "","Description": "","Latitude":48.8318107,"Longitude": 2.2957874},
{"__type": "VEMaps.PinData","Title": "CRÈCHE FAMILIALE (ANTENNE) 9 RUE PERICHAUX","Name": "","Description": "","Latitude":48.8298625,"Longitude": 2.2990099},
{"__type": "VEMaps.PinData","Title": "MULTI-ACCUEIL 139-141 RUE CASTAGNARY","Name": "","Description": "","Latitude":48.8301072,"Longitude": 2.3024279},
{"__type": "VEMaps.PinData","Title": "MULTI-ACCUEIL 152 BOULEVARD DE GRENELLE","Name": "","Description": "","Latitude":48.8483643,"Longitude": 2.2997407},
{"__type": "VEMaps.PinData","Title": "STADE DU CS DE LA PLAINE","Name": "","Description": "","Latitude":48.8279165,"Longitude": 2.2929615},
{"__type": "VEMaps.PinData","Title": "GYMNASE CEVENNES","Name": "","Description": "","Latitude":48.8403142,"Longitude": 2.2791726},
{"__type": "VEMaps.PinData","Title": "GYMNASE DE LA CROIX-NIVERT","Name": "","Description": "","Latitude":48.8425411,"Longitude": 2.294422},
{"__type": "VEMaps.PinData","Title": "GYMNASE DE L'INGENIEUR ROBERT KELLER","Name": "","Description": "","Latitude":48.8479833,"Longitude": 2.2833393},
{"__type": "VEMaps.PinData","Title": "GYMNASE DUPLEIX","Name": "","Description": "","Latitude":48.8518205,"Longitude": 2.2956047},
{"__type": "VEMaps.PinData","Title": "GYMNASE FALGUIERE","Name": "","Description": "","Latitude":48.8366497,"Longitude": 2.3100868},
{"__type": "VEMaps.PinData","Title": "GYMNASE OLIVIER DE SERRES","Name": "","Description": "","Latitude":48.8317787,"Longitude": 2.2932525},
{"__type": "VEMaps.PinData","Title": "GYMNASE RAYMOND BURGARD","Name": "","Description": "","Latitude":48.8403892,"Longitude": 2.3042507},
{"__type": "VEMaps.PinData","Title": "GYMNASE SAINT-LAMBERT","Name": "","Description": "","Latitude":48.8383263,"Longitude": 2.2907269},
{"__type": "VEMaps.PinData","Title": "GYMNASE DU CS LA PLAINE","Name": "","Description": "","Latitude":48.8279165,"Longitude": 2.2929615},
{"__type": "VEMaps.PinData","Title": "CENTRE D'ANIMATION BRANCION","Name": "","Description": "","Latitude":48.826677,"Longitude": 2.3003889},
{"__type": "VEMaps.PinData","Title": "CENTRE D'ANIMATION DES FRERES VOISIN","Name": "","Description": "","Latitude":48.828998,"Longitude": 2.2737458},
{"__type": "VEMaps.PinData","Title": "CENTRE D'ANIMATION ESPACE CEVENNES","Name": "","Description": "","Latitude":48.840423,"Longitude": 2.278901},
{"__type": "VEMaps.PinData","Title": "CENTRE D'ANIMATION SOHANE BENZIANE","Name": "","Description": "","Latitude":48.8356427,"Longitude": 2.3118676},
{"__type": "VEMaps.PinData","Title": "ESPACE PARIS PLAINE","Name": "","Description": "","Latitude":48.8279165,"Longitude": 2.2929615},
{"__type": "VEMaps.PinData","Title": "ANTENNE JEUNES QUATRE FRERES PEIGNOT","Name": "","Description": "","Latitude":48.8454982,"Longitude": 2.2824178},
{"__type": "VEMaps.PinData","Title": "BIBLIOTHEQUE MUNICIPALE MUSSET","Name": "","Description": "","Latitude":48.8420502,"Longitude": 2.2634733},
{"__type": "VEMaps.PinData","Title": "BIBLIOTHEQUE GERMAINE TILLION","Name": "","Description": "","Latitude":48.8618599,"Longitude": 2.284496},
{"__type": "VEMaps.PinData","Title": "CONSERVATOIRE MUNICIPAL FRANCIS POULENC","Name": "","Description": "","Latitude":48.8521963,"Longitude": 2.2746361},
{"__type": "VEMaps.PinData","Title": "ECOLE MATERNELLE 130 RUE LONGCHAMP","Name": "","Description": "","Latitude":48.8755732,"Longitude": 2.2497227},
{"__type": "VEMaps.PinData","Title": "ECOLE MATERNELLE 141 AV VERSAILLES","Name": "","Description": "","Latitude":48.8421743,"Longitude": 2.2678638},
{"__type": "VEMaps.PinData","Title": "ECOLE MATERNELLE 15 BIS RUE SAINT-DIDIER","Name": "","Description": "","Latitude":48.8661154,"Longitude": 2.2877684},
{"__type": "VEMaps.PinData","Title": "ECOLE MATERNELLE 162 BD MURAT","Name": "","Description": "","Latitude":48.8388794,"Longitude": 2.2653837},
{"__type": "VEMaps.PinData","Title": "ECOLE MATERNELLE 18 RUE GROS","Name": "","Description": "","Latitude":48.8512771,"Longitude": 2.275946},
{"__type": "VEMaps.PinData","Title": "ECOLE MATERNELLE 18 RUE SERGE PROKOFIEV","Name": "","Description": "","Latitude":48.85425,"Longitude": 2.2679392},
{"__type": "VEMaps.PinData","Title": "ECOLE MATERNELLE 20 RUE PAUL VALERY","Name": "","Description": "","Latitude":48.8705468,"Longitude": 2.2896703},
{"__type": "VEMaps.PinData","Title": "ECOLE MATERNELLE 25 RUE PASSY","Name": "","Description": "","Latitude":48.8580281,"Longitude": 2.2823306},
{"__type": "VEMaps.PinData","Title": "ECOLE MATERNELLE 27 AV PARC DES PRINCES","Name": "","Description": "","Latitude":48.8400858,"Longitude": 2.2547465},
{"__type": "VEMaps.PinData","Title": "ECOLE MATERNELLE 38 RUE PERCHAMPS","Name": "","Description": "","Latitude":48.8492563,"Longitude": 2.2681662},
{"__type": "VEMaps.PinData","Title": "ECOLE MATERNELLE 5 RUE GUSTAVE ZEDE","Name": "","Description": "","Latitude":48.8560339,"Longitude": 2.2730212},
{"__type": "VEMaps.PinData","Title": "ECOLE MATERNELLE 56 RUE BOISSIERE","Name": "","Description": "","Latitude":48.8681034,"Longitude": 2.2879413},
{"__type": "VEMaps.PinData","Title": "ECOLE MATERNELLE 56-58 RUE ERLANGER","Name": "","Description": "","Latitude":48.8440072,"Longitude": 2.2595307},
{"__type": "VEMaps.PinData","Title": "ECOLE MATERNELLE 64 RUE CHARDON-LAGACHE","Name": "","Description": "","Latitude":48.8423754,"Longitude": 2.2642506},
{"__type": "VEMaps.PinData","Title": "ECOLE MATERNELLE 9 RUE BOULAINVILLIERS","Name": "","Description": "","Latitude":48.852181,"Longitude": 2.2768272},
{"__type": "VEMaps.PinData","Title": "ECOLE ÉLÉMENTAIRE 41 BIS RUE LA FONTAINE","Name": "","Description": "","Latitude":48.8503249,"Longitude": 2.2703598},
{"__type": "VEMaps.PinData","Title": "ECOLE ÉLÉMENTAIRE 51 RUE MICHEL-ANGE","Name": "","Description": "","Latitude":48.8441117,"Longitude": 2.2609916},
{"__type": "VEMaps.PinData","Title": "ECOLE ÉLÉMENTAIRE 54 RUE BOISSIERE","Name": "","Description": "","Latitude":48.8680379,"Longitude": 2.2880307},
{"__type": "VEMaps.PinData","Title": "ECOLE ÉLÉMENTAIRE 63 RUE BOILEAU","Name": "","Description": "","Latitude":48.8427151,"Longitude": 2.2629694},
{"__type": "VEMaps.PinData","Title": "ECOLE ÉLÉMENTAIRE 8 RUE CHERNOVIZ","Name": "","Description": "","Latitude":48.8573153,"Longitude": 2.2820687},
{"__type": "VEMaps.PinData","Title": "ECOLE ÉLÉMENTAIRE 10 RUE BAUCHES","Name": "","Description": "","Latitude":48.8559794,"Longitude": 2.2740391},
{"__type": "VEMaps.PinData","Title": "ECOLE ÉLÉMENTAIRE 130 RUE LONGCHAMP","Name": "","Description": "","Latitude":48.8755732,"Longitude": 2.2497227},
{"__type": "VEMaps.PinData","Title": "ECOLE ÉLÉMENTAIRE 15 BIS RUE SAINT-DIDIER","Name": "","Description": "","Latitude":48.8661154,"Longitude": 2.2877684},
{"__type": "VEMaps.PinData","Title": "ECOLE ÉLÉMENTAIRE 15 RUE BAUCHES","Name": "","Description": "","Latitude":48.8560332,"Longitude": 2.2735101},
{"__type": "VEMaps.PinData","Title": "ECOLE ÉLÉMENTAIRE 162 BD MURAT","Name": "","Description": "","Latitude":48.8388794,"Longitude": 2.2653837},
{"__type": "VEMaps.PinData","Title": "ECOLE ÉLÉMENTAIRE 17 RUE BOILEAU","Name": "","Description": "","Latitude":48.8463923,"Longitude": 2.2652888},
{"__type": "VEMaps.PinData","Title": "ECOLE ÉLÉMENTAIRE 18 RUE PAUL VALERY","Name": "","Description": "","Latitude":48.8703405,"Longitude": 2.2899176},
{"__type": "VEMaps.PinData","Title": "ECOLE ÉLÉMENTAIRE 20 RUE MUSSET","Name": "","Description": "","Latitude":48.8420502,"Longitude": 2.2634733},
{"__type": "VEMaps.PinData","Title": "ECOLE ÉLÉMENTAIRE 21 RUE HAMELIN","Name": "","Description": "","Latitude":48.8673121,"Longitude": 2.2920809},
{"__type": "VEMaps.PinData","Title": "ECOLE ÉLÉMENTAIRE 23 AV PARC DES PRINCES","Name": "","Description": "","Latitude":48.8408861,"Longitude": 2.2546095},
{"__type": "VEMaps.PinData","Title": "ECOLE POLYVALENTE 3 IMP BELLES-FEUILLES","Name": "","Description": "","Latitude":48.8688029,"Longitude": 2.2807044},
{"__type": "VEMaps.PinData","Title": "ECOLE POLYVALENTE 4 RUE DECAMPS","Name": "","Description": "","Latitude":48.865271,"Longitude": 2.2826124},
{"__type": "VEMaps.PinData","Title": "MAIRIE DU 16E ARRONDISSEMENT","Name": "","Description": "","Latitude":48.8639519,"Longitude": 2.2773394},
{"__type": "VEMaps.PinData","Title": "MAISON DES ASSOCIATIONS AVENUE RENÉ BOYLESVE","Name": "","Description": "","Latitude":48.8565747,"Longitude": 2.2841992},
{"__type": "VEMaps.PinData","Title": "STADE GEORGES HEBERT","Name": "","Description": "","Latitude":48.847445,"Longitude": 2.2579085},
{"__type": "VEMaps.PinData","Title": "GYMNASE DES BAUCHES","Name": "","Description": "","Latitude":48.8560236,"Longitude": 2.2739196},
{"__type": "VEMaps.PinData","Title": "CENTRE D'ANIMATION DU POINT DU JOUR","Name": "","Description": "","Latitude":48.8374268,"Longitude": 2.2634237},
{"__type": "VEMaps.PinData","Title": "CENTRE D'ANIMATION DU POINT DU JOUR ANNEXE MESNIL","Name": "","Description": "","Latitude":48.8672786,"Longitude": 2.2839088},
{"__type": "VEMaps.PinData","Title": "BIBLIOTHEQUE COLETTE VIVIER","Name": "","Description": "","Latitude":48.8899169,"Longitude": 2.3193221},
{"__type": "VEMaps.PinData","Title": "BIBLIOTHEQUE-DISCOTHEQUE MUNICIPALE DES BATIGNOLLES","Name": "","Description": "","Latitude":48.8843886,"Longitude": 2.3218539},
{"__type": "VEMaps.PinData","Title": "BIBLIOTHEQUE-DISCOTHEQUE-VIDEOTHEQUE MUNICIPALE EDMOND ROSTAND","Name": "","Description": "","Latitude":48.8885016,"Longitude": 2.3032529},
{"__type": "VEMaps.PinData","Title": "CONSERVATOIRE MUNICIPAL CLAUDE DEBUSSY","Name": "","Description": "","Latitude":48.8820998,"Longitude": 2.3122096},
{"__type": "VEMaps.PinData","Title": "CONSERVATOIRE MUNICIPAL SITE DE LA JONQUIERE","Name": "","Description": "","Latitude":48.894733,"Longitude": 2.319155},
{"__type": "VEMaps.PinData","Title": "ECOLE MATERNELLE 120 RUE SAUSSURE","Name": "","Description": "","Latitude":48.888253,"Longitude": 2.3104594},
{"__type": "VEMaps.PinData","Title": "ECOLE MATERNELLE 14 PAS SAINT-ANGE","Name": "","Description": "","Latitude":48.8964995,"Longitude": 2.3273019},
{"__type": "VEMaps.PinData","Title": "ECOLE MATERNELLE 16 RUE COLONEL MOLL","Name": "","Description": "","Latitude":48.8781059,"Longitude": 2.2899678},
{"__type": "VEMaps.PinData","Title": "ECOLE MATERNELLE 16 RUE DAUTANCOURT","Name": "","Description": "","Latitude":48.889423,"Longitude": 2.324387},
{"__type": "VEMaps.PinData","Title": "ECOLE MATERNELLE 18 RUE AMPERE","Name": "","Description": "","Latitude":48.8853349,"Longitude": 2.3047673},
{"__type": "VEMaps.PinData","Title": "ECOLE MATERNELLE 20 RUE JOUFFROY D'ABBANS","Name": "","Description": "","Latitude":48.8864641,"Longitude": 2.3109637},
{"__type": "VEMaps.PinData","Title": "ECOLE MATERNELLE 21 RUE ANDRE BRECHET","Name": "","Description": "","Latitude":48.8988631,"Longitude": 2.3269897},
{"__type": "VEMaps.PinData","Title": "ECOLE MATERNELLE 21 RUE CAPITAINE LAGACHE","Name": "","Description": "","Latitude":48.8920256,"Longitude": 2.3256539},
{"__type": "VEMaps.PinData","Title": "ECOLE MATERNELLE 22 AV PORTE DE VILLIERS","Name": "","Description": "","Latitude":48.8848527,"Longitude": 2.2853766},
{"__type": "VEMaps.PinData","Title": "ECOLE MATERNELLE 221 BD PEREIRE","Name": "","Description": "","Latitude":48.8804491,"Longitude": 2.2893636},
{"__type": "VEMaps.PinData","Title": "ECOLE MATERNELLE 24 RUE CHRISTINE DE PISAN","Name": "","Description": "","Latitude":48.8900761,"Longitude": 2.3080569},
{"__type": "VEMaps.PinData","Title": "ECOLE MATERNELLE 28 RUE BROCHANT","Name": "","Description": "","Latitude":48.889559,"Longitude": 2.318974},
{"__type": "VEMaps.PinData","Title": "ECOLE MATERNELLE 3 RUE GUSTAVE DORE","Name": "","Description": "","Latitude":48.8861645,"Longitude": 2.3033185},
{"__type": "VEMaps.PinData","Title": "ECOLE MATERNELLE 31 RUE DES RENAUDES","Name": "","Description": "","Latitude":48.8808671,"Longitude": 2.2975486},
{"__type": "VEMaps.PinData","Title": "ECOLE MATERNELLE 44 RUE EPINETTES","Name": "","Description": "","Latitude":48.8969036,"Longitude": 2.323904},
{"__type": "VEMaps.PinData","Title": "ECOLE MATERNELLE 48 RUE SAUSSURE","Name": "","Description": "","Latitude":48.8850968,"Longitude": 2.3152761},
{"__type": "VEMaps.PinData","Title": "ECOLE MATERNELLE 56 RUE BAYEN","Name": "","Description": "","Latitude":48.8834931,"Longitude": 2.2901767},
{"__type": "VEMaps.PinData","Title": "ECOLE MATERNELLE 6 RUE LOUIS VIERNE","Name": "","Description": "","Latitude":48.8883519,"Longitude": 2.2898005},
{"__type": "VEMaps.PinData","Title": "ECOLE MATERNELLE 61 CI FLEURS","Name": "","Description": "","Latitude":48.8926143,"Longitude": 2.3203252},
{"__type": "VEMaps.PinData","Title": "ECOLE MATERNELLE 8 RUE TAPISSERIES","Name": "","Description": "","Latitude":48.8883296,"Longitude": 2.307649},
{"__type": "VEMaps.PinData","Title": "ECOLE MATERNELLE 90 BD BESSIERES","Name": "","Description": "","Latitude":48.8964226,"Longitude": 2.3189824},
{"__type": "VEMaps.PinData","Title": "ECOLE ÉLÉMENTAIRE 42 RUE EPINETTES","Name": "","Description": "","Latitude":48.8967226,"Longitude": 2.3237172},
{"__type": "VEMaps.PinData","Title": "ECOLE ÉLÉMENTAIRE 42 RUE POUCHET","Name": "","Description": "","Latitude":48.8939575,"Longitude": 2.3204137},
{"__type": "VEMaps.PinData","Title": "ECOLE ÉLÉMENTAIRE 49 RUE LEGENDRE","Name": "","Description": "","Latitude":48.885325,"Longitude": 2.3162039},
{"__type": "VEMaps.PinData","Title": "ECOLE ÉLÉMENTAIRE 5 RUE JACQUES KELLNER","Name": "","Description": "","Latitude":48.8966883,"Longitude": 2.3248523},
{"__type": "VEMaps.PinData","Title": "ECOLE ÉLÉMENTAIRE 7 AV PORTE DE CHAMPERRET","Name": "","Description": "","Latitude":48.8862457,"Longitude": 2.2870991},
{"__type": "VEMaps.PinData","Title": "ECOLE ÉLÉMENTAIRE 92 BD BESSIERES","Name": "","Description": "","Latitude":48.8963531,"Longitude": 2.3188017},
{"__type": "VEMaps.PinData","Title": "ECOLE ÉLÉMENTAIRE 101 RUE SAUSSURE","Name": "","Description": "","Latitude":48.8874515,"Longitude": 2.3117369},
{"__type": "VEMaps.PinData","Title": "ECOLE ÉLÉMENTAIRE 105 RUE LEMERCIER","Name": "","Description": "","Latitude":48.8897427,"Longitude": 2.3180062},
{"__type": "VEMaps.PinData","Title": "ECOLE ÉLÉMENTAIRE 112 BD BERTHIER","Name": "","Description": "","Latitude":48.8892144,"Longitude": 2.3017984},
{"__type": "VEMaps.PinData","Title": "ECOLE ÉLÉMENTAIRE 12 BIS RUE FOURCROY","Name": "","Description": "","Latitude":48.8804475,"Longitude": 2.2964632},
{"__type": "VEMaps.PinData","Title": "ECOLE ÉLÉMENTAIRE 16 RUE COLONEL MOLL","Name": "","Description": "","Latitude":48.8781059,"Longitude": 2.2899678},
{"__type": "VEMaps.PinData","Title": "ECOLE ÉLÉMENTAIRE 16 RUE LAUGIER","Name": "","Description": "","Latitude":48.8803665,"Longitude": 2.2966801},
{"__type": "VEMaps.PinData","Title": "ECOLE ÉLÉMENTAIRE 18 RUE AMPERE","Name": "","Description": "","Latitude":48.8853349,"Longitude": 2.3047673},
{"__type": "VEMaps.PinData","Title": "ECOLE ÉLÉMENTAIRE 19 RUE CAPITAINE LAGACHE","Name": "","Description": "","Latitude":48.8920052,"Longitude": 2.3257833},